gps_lat,gps_long,lat,long,city,state,area,country,state_flag
31.78,-94.33,31.90378,-94.3952,Timpson,Texas,Shelby County,US,Texas
38.77,-88.01,38.73088,-88.08532,Olney,Illinois,Richland County,US,Illinois
28.85,-81.03,28.73972,-81.11506,Geneva,Florida,Seminole County,US,Florida
25.86,-96.76,26.10369,-97.16469,South Padre Island,Texas,Cameron County,US,Texas
37.23,-97.89,37.28669,-98.02589,Harper,Kansas,Harper County,US,Kansas
24.22,-81.67,24.56709,-81.73841999999998,Stock Island,Florida,Monroe County,US,Florida
33.35,-121.73,34.63915,-120.45794,Lompoc,California,Santa Barbara County,US,California
41.33,-107.77,41.79107,-107.23866,Rawlins,Wyoming,Carbon County,US,Wyoming
42.2,-94.52,42.26748,-94.73387,Lake City,Iowa,Calhoun County,US,Iowa
33.48,-98.6,33.595659999999995,-98.62561,Archer City,Texas,Archer County,US,Texas
25.07,-122.27,27.14231,-114.29582,Bahia Asuncion,Baja California Sur,Mulege,MX,None
37.49,-105.01,37.62418,-104.78026,Walsenburg,Colorado,Huerfano County,US,Colorado
34.41,-114.48,34.4839,-114.32245,Lake Havasu City,Arizona,Mohave County,US,Arizona
35.17,-120.24,35.04275,-120.476,Nipomo,California,San Luis Obispo County,US,California
46.82,-94.53,47.10135,-94.58722,Walker,Minnesota,Cass County,US,Minnesota
48.19,-97.63,48.3986,-97.7412,Park River,North Dakota,Walsh County,US,North Dakota
32.71,-79.34,33.03767,-79.61313,Awendaw,South Carolina,Charleston County,US,South Carolina
35.51,-93.72,35.43731,-93.67297,Coal Hill,Arkansas,Johnson County,US,Arkansas
45.93,-71.68,46.21856,-71.76201,Plessisville,Quebec,Mauricie,CA,None
46.65,-77.12,46.10012,-77.49949000000002,Deep River,Ontario,,CA,None
36.51,-116.56,36.90856,-116.75923,Beatty,Nevada,Nye County,US,Nevada
25.04,-115.03,27.14231,-114.29582,Bahia Asuncion,Baja California Sur,Mulege,MX,None
45.39,-73.09,45.43338,-73.04914000000002,Rougemont,Quebec,Monteregie,CA,None
35.3,-122.5,36.55524000000001,-121.92329,Carmel-by-the-Sea,California,Monterey County,US,California
49.56,-75.3,49.78344,-74.84919000000002,Chapais,Quebec,Nord-du-Quebec,CA,None
28.63,-112.1,28.82278,-111.94083,Bahia de Kino,Sonora,Hermosillo,MX,None
45.98,-87.98,45.80635,-87.98846,Quinnesec,Michigan,Dickinson County,US,Michigan
48.28,-111.51,48.50526,-111.85697,Shelby,Montana,Toole County,US,Montana
37.69,-94.88,37.51116,-94.83802,Girard,Kansas,Crawford County,US,Kansas
28.24,-81.15,28.2489,-81.28118,Saint Cloud,Florida,Osceola County,US,Florida
39.72,-98.32,39.78723,-98.21005,Mankato,Kansas,Jewell County,US,Kansas
26.49,-111.44,26.01217,-111.34888,Loreto,Baja California Sur,Loreto,MX,None
41.01,-103.96,41.18193,-104.06912,Pine Bluffs,Wyoming,Laramie County,US,Wyoming
28.89,-73.36,26.54124,-77.0636,Marsh Harbour,Central Abaco,,BS,None
41.67,-69.15,41.68206,-69.95974,Chatham,Massachusetts,Barnstable County,US,Massachusetts
42.54,-68.88,41.99344,-70.04975,Truro,Massachusetts,Barnstable County,US,Massachusetts
35.82,-66.38,32.38167,-64.67806,Saint George,Saint George,,BM,None
38.73,-121.52,38.71379,-121.46273,Elverta,California,Sacramento County,US,California
24.52,-118.81,27.14231,-114.29582,Bahia Asuncion,Baja California Sur,Mulege,MX,None
24.03,-123.91,27.14231,-114.29582,Bahia Asuncion,Baja California Sur,Mulege,MX,None
45.73,-85.57,45.31806,-85.2584,Charlevoix,Michigan,Charlevoix County,US,Michigan
48.36,-100.86,48.05612,-100.92932,Velva,North Dakota,McHenry County,US,North Dakota
29.54,-105.66,28.609720000000006,-105.94028,Ninguno [CERESO],Chihuahua,Aquiles Serdan,MX,None
37.03,-92.95,37.00116,-93.08157,Sparta,Missouri,Christian County,US,Missouri
30.5,-69.77,32.2949,-64.78303000000001,Hamilton,Hamilton city,,BM,None
49.87,-68.05,49.21679,-68.14894,Baie-Comeau,Quebec,Cote-Nord,CA,None
25.13,-112.25,25.26318,-111.77547,Ciudad Insurgentes,Baja California Sur,,MX,None
44.92,-80.82,44.56717,-80.94349,Owen Sound,Ontario,,CA,None
42.38,-98.65,42.45778,-98.64759,O'Neill,Nebraska,Holt County,US,Nebraska
24.82,-109.31,25.60084,-109.0523,Topolobampo,Sinaloa,,MX,None
36.41,-116.02,36.20829000000001,-115.98391,Pahrump,Nevada,Nye County,US,Nevada
30.52,-71.71,35.26768,-75.54236999999998,Buxton,North Carolina,Dare County,US,North Carolina
41.82,-118.35,40.97296,-117.73568,Winnemucca,Nevada,Humboldt County,US,Nevada
24.16,-78.75,24.7,-77.76666999999998,Andros Town,North Andros,,BS,None
33.71,-99.16,33.59426,-99.26035,Seymour,Texas,Baylor County,US,Texas
35.9,-66.24,32.38167,-64.67806,Saint George,Saint George,,BM,None
48.05,-115.74,48.38829000000001,-115.556,Libby,Montana,Lincoln County,US,Montana
49.37,-82.43,49.41694,-82.43308,Kapuskasing,Ontario,,CA,None
47.94,-88.27,47.41381,-88.29566,Eagle River,Michigan,Keweenaw County,US,Michigan
30.82,-81.16,30.66968,-81.46259,Fernandina Beach,Florida,Nassau County,US,Florida
36.03,-104.85,36.36114,-104.59527,Springer,New Mexico,Colfax County,US,New Mexico
32.21,-103.49,32.11318,-103.19351,Jal,New Mexico,Lea County,US,New Mexico
36.3,-91.71,36.22923,-91.76431,Horseshoe Bend,Arkansas,Izard County,US,Arkansas
24.08,-77.61,24.7,-77.76666999999998,Andros Town,North Andros,,BS,None
24.57,-116.16,27.14231,-114.29582,Bahia Asuncion,Baja California Sur,Mulege,MX,None
28.36,-118.99,30.40722,-115.88722,Luis Rodriguez (El Vergel),Baja California,Ensenada,MX,None
35.11,-81.41,35.12124,-81.51592,Blacksburg,South Carolina,Cherokee County,US,South Carolina
43.2,-97.9,42.99333,-97.86285,Tyndall,South Dakota,Bon Homme County,US,South Dakota
25.54,-101.13,25.42321,-101.0053,Saltillo,Coahuila,,MX,None
44.89,-93.26,44.8833,-93.283,Richfield,Minnesota,Hennepin County,US,Minnesota
50.82,-114.94,51.08335,-115.35206,Canmore,Alberta,,CA,None
26.25,-116.26,27.14231,-114.29582,Bahia Asuncion,Baja California Sur,Mulege,MX,None
36.16,-113.05,35.52916,-113.42549,Peach Springs,Arizona,Mohave County,US,Arizona
47.39,-86.46,46.4112,-86.64926,Munising,Michigan,Alger County,US,Michigan
33.67,-106.52,34.0584,-106.89142,Socorro,New Mexico,Socorro County,US,New Mexico
35.47,-84.58,35.44285,-84.59299,Athens,Tennessee,McMinn County,US,Tennessee
35.16,-89.29,35.2437,-89.35007,Somerville,Tennessee,Fayette County,US,Tennessee
36.43,-72.56,35.95739000000001,-75.62406,Nags Head,North Carolina,Dare County,US,North Carolina
47.63,-115.8,47.47409,-115.92794,Wallace,Idaho,Shoshone County,US,Idaho
32.08,-104.34,32.28623,-104.09577,Loving,New Mexico,Eddy County,US,New Mexico
45.99,-120.31,46.34207,-120.18727,Granger,Washington,Yakima County,US,Washington
42.33,-81.5,42.77361,-81.18038,St. Thomas,Ontario,,CA,None
33.08,-100.17,33.13343,-100.22733,Aspermont,Texas,Stonewall County,US,Texas
38.64,-115.07,39.24744000000001,-114.88863,Ely,Nevada,White Pine County,US,Nevada
47.22,-112.29,46.95494,-112.68171,Lincoln,Montana,Lewis and Clark County,US,Montana
34.25,-112.76,34.16253,-112.85074,Congress,Arizona,Yavapai County,US,Arizona
48.83,-107.75,48.35972,-107.87428,Malta,Montana,Phillips County,US,Montana
42.29,-75.42,42.3148,-75.39157,Sidney,New York,Delaware County,US,New York
30.85,-119.64,33.34281,-118.32785,Avalon,California,Los Angeles County,US,California
44.41,-72.77,44.33783,-72.75623,Waterbury,Vermont,Washington County,US,Vermont
41.55,-99.21,41.78167,-99.13315,Burwell,Nebraska,Garfield County,US,Nebraska
49.88,-113.5,50.03332,-113.58523999999998,Claresholm,Alberta,,CA,None
44.23,-119.12,44.3896,-118.95023,Canyon City,Oregon,Grant County,US,Oregon
44.06,-108.48,43.64607,-108.21204,Thermopolis,Wyoming,Hot Springs County,US,Wyoming
37.06,-94.6,37.0759,-94.63967,Galena,Kansas,Cherokee County,US,Kansas
28.01,-110.59,28.05028,-110.70111,La Palma,Sonora,Empalme,MX,None
39.92,-76.89,39.87454,-76.86581,Spring Grove,Pennsylvania,York County,US,Pennsylvania
45.31,-80.31,45.34732,-80.03527,Parry Sound,Ontario,Parry Sound District,CA,None
25.01,-97.93,25.01556,-97.71694,El Barrancon del Tio Blas (El Barrancon),Tamaulipas,San Fernando,MX,None
43.86,-108.91,44.52634000000001,-109.05653,Cody,Wyoming,Park County,US,Wyoming
43.85,-76.95,44.00012,-77.13275,Picton,Ontario,,CA,None
38.33,-122.55,38.3488,-122.51081,Eldridge,California,Sonoma County,US,California
48.71,-100.9,48.82723,-100.4457,Bottineau,North Dakota,Bottineau County,US,North Dakota
49.2,-69.26,48.73808,-69.08478000000001,Forestville,Quebec,Cote-Nord,CA,None
48.98,-74.5,49.78344,-74.84919000000002,Chapais,Quebec,Nord-du-Quebec,CA,None
25.68,-89.59,29.23662,-89.98729,Grand Isle,Louisiana,Jefferson Parish,US,Louisiana
46.07,-82.21,45.97927,-81.9248,Little Current,Ontario,,CA,None
26.57,-112.23,26.89141,-111.9826,Mulege,Baja California Sur,,MX,None
46.32,-80.91,46.49,-80.99001,Greater Sudbury,Ontario,,CA,None
41.87,-72.35,41.87149,-72.36869,Tolland,Connecticut,Tolland County,US,Connecticut
33.29,-66.08,32.2949,-64.78303000000001,Hamilton,Hamilton city,,BM,None
28.34,-72.52,24.05179,-74.53138,Cockburn Town,San Salvador,,BS,None
34.57,-107.24,34.42089,-107.51088,Alamo,New Mexico,Socorro County,US,New Mexico
36.0,-70.77,35.26768,-75.54236999999998,Buxton,North Carolina,Dare County,US,North Carolina
44.44,-111.74,44.07158,-111.44829,Ashton,Idaho,Fremont County,US,Idaho
35.6,-108.66,35.53391,-108.5998,Church Rock,New Mexico,McKinley County,US,New Mexico
29.74,-107.32,29.8432,-107.46067,Buenaventura,Chihuahua,,MX,None
49.58,-114.54,49.73332,-114.88532,Sparwood,British Columbia,,CA,None
37.93,-104.38,38.25445,-104.60914,Pueblo,Colorado,Pueblo County,US,Colorado
41.52,-120.58,41.48711,-120.54246,Alturas,California,Modoc County,US,California
42.7,-107.31,41.79107,-107.23866,Rawlins,Wyoming,Carbon County,US,Wyoming
38.08,-123.4,38.33325,-123.04806,Bodega Bay,California,Sonoma County,US,California
29.03,-94.52,29.30135,-94.7977,Galveston,Texas,Galveston County,US,Texas
36.09,-82.39,36.13066,-82.42458,Banner Hill,Tennessee,Unicoi County,US,Tennessee
37.13,-122.51,37.46355,-122.42859,Half Moon Bay,California,San Mateo County,US,California
37.59,-70.85,41.03594,-71.95451,Montauk,New York,Suffolk County,US,New York
48.0,-88.25,47.41381,-88.29566,Eagle River,Michigan,Keweenaw County,US,Michigan
30.03,-122.49,34.63915,-120.45794,Lompoc,California,Santa Barbara County,US,California
31.94,-79.73,32.65518,-79.94037,Folly Beach,South Carolina,Charleston County,US,South Carolina
41.76,-107.54,41.79107,-107.23866,Rawlins,Wyoming,Carbon County,US,Wyoming
24.91,-108.08,25.08164,-108.05673,La Reforma,Sinaloa,,MX,None
36.98,-114.99,37.36496,-115.16446,Alamo,Nevada,Lincoln County,US,Nevada
48.96,-101.12,49.26811,-100.99669,Melita,Manitoba,,CA,None
32.63,-106.02,32.80703,-105.9861,Boles Acres,New Mexico,Otero County,US,New Mexico
32.18,-87.49,32.44958,-87.51417,Uniontown,Alabama,Perry County,US,Alabama
39.7,-114.12,39.40494,-114.77863,McGill,Nevada,White Pine County,US,Nevada
33.65,-117.16,33.70919,-117.19726,Sun City,California,Riverside County,US,California
27.22,-112.12,27.34045,-112.26761,Santa Rosalia,Baja California Sur,,MX,None
34.36,-73.67,35.26768,-75.54236999999998,Buxton,North Carolina,Dare County,US,North Carolina
41.29,-91.5,41.28003,-91.36071,Columbus Junction,Iowa,Louisa County,US,Iowa
33.46,-84.32,33.46567,-84.33659,Bonanza,Georgia,Clayton County,US,Georgia
32.28,-107.42,32.2687,-107.75864,Deming,New Mexico,Luna County,US,New Mexico
29.06,-84.93,29.72577,-84.98324000000002,Apalachicola,Florida,Franklin County,US,Florida
25.97,-73.19,24.05179,-74.53138,Cockburn Town,San Salvador,,BS,None
32.88,-80.25,32.76323,-80.2501,Ravenel,South Carolina,Charleston County,US,South Carolina
26.56,-102.3,27.04944,-101.79389,Lamadrid,Coahuila,Lamadrid,MX,None
38.71,-123.76,38.71519,-123.45445,Sea Ranch,California,Sonoma County,US,California
40.6,-98.45,40.58612,-98.38839,Hastings,Nebraska,Adams County,US,Nebraska
28.13,-96.51,28.44834,-96.40581,Port O'Connor,Texas,Calhoun County,US,Texas
48.4,-113.02,48.54608,-113.01425,South Browning,Montana,Glacier County,US,Montana
39.6,-74.02,39.66206,-74.16514000000002,Surf City,New Jersey,Ocean County,US,New Jersey
28.69,-96.54,28.615,-96.62609,Port Lavaca,Texas,Calhoun County,US,Texas
43.73,-103.07,44.06249,-103.14629,Rapid Valley,South Dakota,Pennington County,US,South Dakota
39.35,-86.38,39.42783,-86.42833,Martinsville,Indiana,Morgan County,US,Indiana
30.44,-102.17,30.14241,-102.39403,Sanderson,Texas,Terrell County,US,Texas
49.91,-119.79,49.76647,-119.73568,Peachland,British Columbia,,CA,None
44.43,-70.24,44.38396,-70.24922,Livermore,Maine,Androscoggin County,US,Maine
42.23,-109.22,41.64358,-109.26568,North Rock Springs,Wyoming,Sweetwater County,US,Wyoming
36.85,-78.65,36.79931,-78.45833,Chase City,Virginia,Mecklenburg County,US,Virginia
46.26,-80.34,46.49,-80.99001,Greater Sudbury,Ontario,,CA,None
37.8,-85.03,37.82508,-84.87079,Jackson,Kentucky,Mercer County,US,Kentucky
26.67,-88.79,29.23662,-89.98729,Grand Isle,Louisiana,Jefferson Parish,US,Louisiana
38.71,-79.66,38.92594,-79.84673000000002,Elkins,West Virginia,Randolph County,US,West Virginia
46.06,-109.46,46.29718,-109.25879,Ryegate,Montana,Golden Valley County,US,Montana
40.9,-92.0,41.00863,-91.96267,Fairfield,Iowa,Jefferson County,US,Iowa
48.08,-77.89,48.10018,-77.7828,Val-d'Or,Quebec,Abitibi-Temiscamingue,CA,None
42.77,-92.62,42.7847,-92.66769,Clarksville,Iowa,Butler County,US,Iowa
28.52,-68.59,32.2949,-64.78303000000001,Hamilton,Hamilton city,,BM,None
40.46,-79.06,40.5434,-79.16226,Homer City,Pennsylvania,Indiana County,US,Pennsylvania
26.41,-99.44,26.56219,-99.22863,Nueva Ciudad Guerrero,Tamaulipas,,MX,None
35.05,-88.54,34.93425,-88.52226999999998,Corinth,Mississippi,Alcorn County,US,Mississippi
41.38,-83.63,41.37477,-83.65132,Bowling Green,Ohio,Wood County,US,Ohio
36.68,-80.45,36.64097,-80.26561,Stuart,Virginia,Patrick County,US,Virginia
35.15,-114.72,35.16778,-114.57302,Laughlin,Nevada,Clark County,US,Nevada
47.15,-86.97,46.54354,-87.39542,Marquette,Michigan,Marquette County,US,Michigan
39.01,-68.14,41.28346,-70.09946,Nantucket,Massachusetts,Nantucket County,US,Massachusetts
37.36,-118.8,37.64855,-118.97208,Mammoth Lakes,California,Mono County,US,California
50.69,-83.54,49.68351,-83.66654,Hearst,Ontario,,CA,None
35.73,-80.91,35.70069,-80.88813,Troutman,North Carolina,Iredell County,US,North Carolina
35.17,-118.47,35.14247,-118.49036,Golden Hills,California,Kern County,US,California
37.81,-76.61,37.76986,-76.46634,Lancaster,Virginia,Lancaster County,US,Virginia
34.01,-94.19,34.037890000000004,-94.34132,De Queen,Arkansas,Sevier County,US,Arkansas
39.19,-71.14,41.03594,-71.95451,Montauk,New York,Suffolk County,US,New York
40.39,-71.76,41.03594,-71.95451,Montauk,New York,Suffolk County,US,New York
50.14,-78.75,49.75018,-77.63277,Matagami,Quebec,Nord-du-Quebec,CA,None
40.04,-74.22,40.04262,-74.18486,Leisure Village,New Jersey,Ocean County,US,New Jersey
39.25,-76.33,39.33539,-76.39024,Bowleys Quarters,Maryland,Baltimore County,US,Maryland
40.53,-118.68,40.17935,-118.47348,Lovelock,Nevada,Pershing County,US,Nevada
42.03,-111.7,41.92271,-111.81356,Richmond,Utah,Cache County,US,Utah
38.65,-119.26,38.78421,-119.34425,Smith Valley,Nevada,Lyon County,US,Nevada
28.03,-120.16,30.40722,-115.88722,Luis Rodriguez (El Vergel),Baja California,Ensenada,MX,None
33.84,-85.48,33.92455,-85.61135,Piedmont,Alabama,Calhoun County,US,Alabama
28.14,-92.94,29.79772,-93.32515,Cameron,Louisiana,Cameron Parish,US,Louisiana
49.52,-87.98,49.73343,-87.16668,Greenstone,Ontario,,CA,None
36.25,-77.93,36.03849,-77.90637,Red Oak,North Carolina,Nash County,US,North Carolina
38.13,-96.72,38.37224000000001,-96.54278,Cottonwood Falls,Kansas,Chase County,US,Kansas
37.03,-120.57,36.98606,-120.62657,Dos Palos,California,Merced County,US,California
34.68,-74.98,35.26768,-75.54236999999998,Buxton,North Carolina,Dare County,US,North Carolina
39.67,-80.77,39.64452,-80.8576,New Martinsville,West Virginia,Wetzel County,US,West Virginia
25.17,-66.04,21.46122,-71.14188,Cockburn Town,,,TC,None
28.96,-87.57,30.24604,-87.70082,Gulf Shores,Alabama,Baldwin County,US,Alabama
31.32,-89.25,31.346559999999997,-89.26006,Petal,Mississippi,Forrest County,US,Mississippi
50.64,-90.37,48.75667,-91.62409,Atikokan,Ontario,Rainy River District,CA,None
49.57,-118.38,49.03309,-118.4356,Grand Forks,British Columbia,,CA,None
48.81,-122.79,48.91789,-122.74462,Birch Bay,Washington,Whatcom County,US,Washington
30.93,-102.12,30.91405,-101.89791,Iraan,Texas,Pecos County,US,Texas
24.28,-72.6,24.05179,-74.53138,Cockburn Town,San Salvador,,BS,None
40.38,-66.89,41.28346,-70.09946,Nantucket,Massachusetts,Nantucket County,US,Massachusetts
43.82,-74.02,43.49674,-73.77623,Warrensburg,New York,Warren County,US,New York
25.42,-110.98,26.01217,-111.34888000000001,Loreto,Baja California Sur,Loreto,MX,None
25.56,-79.49,25.71667,-79.3,Alice Town,Bimini,,BS,None
36.37,-84.78,36.42757,-84.93189,Jamestown,Tennessee,Fentress County,US,Tennessee
26.98,-110.64,27.351670000000002,-110.45472,Bahia de Lobos,Sonora,San Ignacio Rio Muerto,MX,None
45.45,-84.26,45.64696,-84.47448,Cheboygan,Michigan,Cheboygan County,US,Michigan
35.57,-94.58,35.4212,-94.51465999999999,Roland,Oklahoma,Sequoyah County,US,Oklahoma
48.83,-102.68,49.13337,-102.98422,Estevan,Saskatchewan,,CA,None
26.28,-98.2,26.301740000000002,-98.16334,Edinburg,Texas,Hidalgo County,US,Texas
35.44,-118.25,35.66579,-118.29036,Weldon,California,Kern County,US,California
29.71,-68.3,32.2949,-64.78303000000001,Hamilton,Hamilton city,,BM,None
47.25,-97.56,47.49804,-97.32454,Mayville,North Dakota,Traill County,US,North Dakota
26.94,-114.87,27.14231,-114.29581999999999,Bahia Asuncion,Baja California Sur,Mulege,MX,None
36.41,-120.18,36.60662,-120.18903999999999,San Joaquin,California,Fresno County,US,California
30.17,-121.71,34.41333,-119.86097,Isla Vista,California,Santa Barbara County,US,California
25.73,-102.53,25.44156,-102.1792,Parras de la Fuente,Coahuila,,MX,None
29.85,-94.06,29.88519,-93.94233,Port Arthur,Texas,Jefferson County,US,Texas
39.65,-80.61,39.64452,-80.8576,New Martinsville,West Virginia,Wetzel County,US,West Virginia
40.67,-103.06,40.62554,-103.20770999999999,Sterling,Colorado,Logan County,US,Colorado
33.17,-113.52,33.78114,-113.61465,Salome,Arizona,La Paz County,US,Arizona
32.1,-71.54,35.26768,-75.54236999999999,Buxton,North Carolina,Dare County,US,North Carolina
26.62,-86.74,29.81188,-85.30297,Port Saint Joe,Florida,Gulf County,US,Florida
48.6,-96.19,48.11914,-96.18115,Thief River Falls,Minnesota,Pennington County,US,Minnesota
45.42,-100.6,45.53722,-100.42791,Mobridge,South Dakota,Walworth County,US,South Dakota
46.96,-107.31,47.32083,-106.91006999999999,Jordan,Montana,Garfield County,US,Montana
39.43,-122.36,39.52433,-122.19358999999999,Willows,California,Glenn County,US,California
28.18,-71.41,24.05179,-74.53138,Cockburn Town,San Salvador,,BS,None
40.09,-89.49,40.148379999999996,-89.36482,Lincoln,Illinois,Logan County,US,Illinois
33.69,-68.4,32.2949,-64.78303000000001,Hamilton,Hamilton city,,BM,None
25.59,-104.37,25.2275,-104.11389,Nazas,Durango,Nazas,MX,None
43.11,-112.04,43.3813,-112.12331,Shelley,Idaho,Bingham County,US,Idaho
48.13,-87.14,48.7501,-86.43321999999999,Marathon,Ontario,,CA,None
37.46,-101.21,37.58141,-101.35517,Ulysses,Kansas,Grant County,US,Kansas
35.56,-117.75,35.64051,-117.76395,China Lake Acres,California,Kern County,US,California
48.56,-87.07,48.7501,-86.43321999999999,Marathon,Ontario,,CA,None
24.23,-71.03,22.366670000000003,-72.96667,Abraham's Bay,Mayaguana,,BS,None
29.95,-119.4,32.10083,-116.86917,Santa Anita,Baja California,Playas de Rosarito,MX,None
44.4,-121.32,44.3529,-121.17781000000001,Terrebonne,Oregon,Deschutes County,US,Oregon
48.72,-82.92,49.416940000000004,-82.43308,Kapuskasing,Ontario,,CA,None
30.87,-88.39,30.92519,-88.59002,Lucedale,Mississippi,George County,US,Mississippi
29.17,-94.27,29.47829,-94.57991,Bolivar Peninsula,Texas,Galveston County,US,Texas
50.97,-74.07,49.91684,-74.36586,Chibougamau,Quebec,Nord-du-Quebec,CA,None
38.92,-66.1,41.28346,-70.09946,Nantucket,Massachusetts,Nantucket County,US,Massachusetts
38.69,-99.1,38.85279,-99.1476,Victoria,Kansas,Ellis County,US,Kansas
42.95,-110.54,43.28187,-110.78381,Hoback,Wyoming,Teton County,US,Wyoming
43.86,-111.75,43.87297,-111.7483,Sugar City,Idaho,Madison County,US,Idaho
45.77,-66.88,45.945409999999995,-66.66558,Fredericton,New Brunswick,,CA,None
38.92,-66.25,41.28346,-70.09946,Nantucket,Massachusetts,Nantucket County,US,Massachusetts
34.05,-118.89,34.00501,-118.81008999999999,Malibu,California,Los Angeles County,US,California
46.63,-110.98,46.54828,-110.90216000000001,White Sulphur Springs,Montana,Meagher County,US,Montana
28.35,-120.19,30.407220000000002,-115.88722,Luis Rodriguez (El Vergel),Baja California,Ensenada,MX,None
50.83,-88.09,49.73343,-87.16668,Greenstone,Ontario,,CA,None
36.02,-97.64,35.95254,-97.59477,Crescent,Oklahoma,Logan County,US,Oklahoma
25.08,-82.82,24.5557,-81.78259,Key West,Florida,Monroe County,US,Florida
29.63,-88.12,30.25548,-88.10972,Dauphin Island,Alabama,Mobile County,US,Alabama
33.19,-97.59,33.23428,-97.58614,Decatur,Texas,Wise County,US,Texas
34.11,-104.18,34.47173,-104.24553,Fort Sumner,New Mexico,De Baca County,US,New Mexico
46.95,-78.48,46.72122,-79.09711999999999,Temiscaming,Quebec,Abitibi-Temiscamingue,CA,None
31.57,-100.29,31.46377,-100.43704,San Angelo,Texas,Tom Green County,US,Texas
48.71,-94.04,48.71247,-94.59993,Baudette,Minnesota,Lake of the Woods County,US,Minnesota
38.2,-97.49,38.203070000000004,-97.51921,Moundridge,Kansas,McPherson County,US,Kansas
39.51,-119.58,39.534909999999996,-119.75268999999999,Sparks,Nevada,Washoe County,US,Nevada
37.42,-93.17,37.38393,-93.1513,Fair Grove,Missouri,Greene County,US,Missouri
33.75,-79.91,33.66766,-79.83063,Kingstree,South Carolina,Williamsburg County,US,South Carolina
32.97,-119.63,34.14778,-119.19511000000001,Port Hueneme,California,Ventura County,US,California
47.05,-107.08,47.32083,-106.91006999999999,Jordan,Montana,Garfield County,US,Montana
47.09,-87.81,47.41381,-88.29566,Eagle River,Michigan,Keweenaw County,US,Michigan
27.03,-122.17,30.407220000000002,-115.88722,Luis Rodriguez (El Vergel),Baja California,Ensenada,MX,None
43.59,-121.88,43.6704,-121.50363999999999,La Pine,Oregon,Deschutes County,US,Oregon
30.15,-84.88,30.432470000000002,-84.97702,Bristol,Florida,Liberty County,US,Florida
25.09,-111.08,24.93,-111.62806,Villa Morelos,Baja California Sur,Comondu,MX,None
38.39,-118.47,38.524640000000005,-118.62458000000001,Hawthorne,Nevada,Mineral County,US,Nevada
45.25,-108.49,44.83745,-108.38956,Lovell,Wyoming,Big Horn County,US,Wyoming
47.64,-121.69,47.49566,-121.78678000000001,North Bend,Washington,King County,US,Washington
33.18,-116.77,33.041709999999995,-116.86808,Ramona,California,San Diego County,US,California
43.19,-78.44,43.212559999999996,-78.47641,Middleport,New York,Niagara County,US,New York
24.85,-82.73,24.5557,-81.78259,Key West,Florida,Monroe County,US,Florida
37.81,-101.99,37.98057,-101.75267,Syracuse,Kansas,Hamilton County,US,Kansas
41.35,-107.76,41.79107,-107.23866000000001,Rawlins,Wyoming,Carbon County,US,Wyoming
24.61,-118.78,27.14231,-114.29581999999999,Bahia Asuncion,Baja California Sur,Mulege,MX,None
43.39,-69.79,43.820640000000004,-69.81477,Phippsburg,Maine,Sagadahoc County,US,Maine
33.32,-81.68,33.42153,-81.68567,New Ellenton,South Carolina,Aiken County,US,South Carolina
47.17,-92.47,47.46243,-92.53990999999999,Eveleth,Minnesota,Saint Louis County,US,Minnesota
47.02,-71.53,46.88026,-71.51464,Shannon,Quebec,Capitale-Nationale,CA,None
49.48,-96.75,49.52579,-96.68451,Steinbach,Manitoba,,CA,None
40.9,-99.87,40.85973,-99.98734,Cozad,Nebraska,Dawson County,US,Nebraska
42.72,-123.32,42.92734,-123.28116999999999,Canyonville,Oregon,Douglas County,US,Oregon
46.69,-100.8,46.80833,-100.78374000000001,Bismarck,North Dakota,Burleigh County,US,North Dakota
36.88,-104.68,36.90336,-104.43915,Raton,New Mexico,Colfax County,US,New Mexico
44.15,-75.19,44.336729999999996,-75.46299,Gouverneur,New York,St. Lawrence County,US,New York
29.93,-74.62,26.541240000000002,-77.0636,Marsh Harbour,Central Abaco,,BS,None
33.92,-98.31,33.81732,-98.19532,Henrietta,Texas,Clay County,US,Texas
31.53,-109.33,31.34473,-109.54678,Douglas,Arizona,Cochise County,US,Arizona
25.42,-116.56,27.14231,-114.29581999999999,Bahia Asuncion,Baja California Sur,Mulege,MX,None
26.55,-83.21,27.053109999999997,-82.42426,South Venice,Florida,Sarasota County,US,Florida
35.55,-80.35,35.55125,-80.40645,Rockwell,North Carolina,Rowan County,US,North Carolina
25.05,-112.14,25.26318,-111.77547,Ciudad Insurgentes,Baja California Sur,,MX,None
47.73,-88.8,47.41381,-88.29566,Eagle River,Michigan,Keweenaw County,US,Michigan
33.08,-84.43,33.10235,-84.3427,Zebulon,Georgia,Pike County,US,Georgia
49.92,-109.13,49.916779999999996,-109.48481000000001,Maple Creek,Saskatchewan,,CA,None
27.44,-118.72,30.407220000000002,-115.88722,Luis Rodriguez (El Vergel),Baja California,Ensenada,MX,None
25.64,-104.36,25.2275,-104.11389,Nazas,Durango,Nazas,MX,None
24.19,-109.85,24.13811,-110.30973,La Paz,Baja California Sur,La Paz,MX,None
34.26,-109.79,34.142540000000004,-109.96038,Pinetop-Lakeside,Arizona,Navajo County,US,Arizona
44.39,-94.33,44.312459999999994,-94.46053,New Ulm,Minnesota,Brown County,US,Minnesota
35.68,-73.99,35.26768,-75.54236999999999,Buxton,North Carolina,Dare County,US,North Carolina
48.99,-71.57,48.550090000000004,-71.6491,Alma,Quebec,Saguenay/Lac-Saint-Jean,CA,None
37.53,-88.41,37.42366,-88.34615,Rosiclare,Illinois,Hardin County,US,Illinois
37.2,-71.26,39.573170000000005,-74.23153,North Beach Haven,New Jersey,Ocean County,US,New Jersey
35.78,-122.49,36.555240000000005,-121.92329,Carmel-by-the-Sea,California,Monterey County,US,California
45.89,-80.93,46.49,-80.99001,Greater Sudbury,Ontario,,CA,None
50.43,-98.44,49.97282,-98.29263,Portage la Prairie,Manitoba,,CA,None
36.36,-93.13,36.22979,-93.10768,Harrison,Arkansas,Boone County,US,Arkansas
45.79,-80.17,45.34732,-80.03527,Parry Sound,Ontario,Parry Sound District,CA,None
36.09,-122.14,36.555240000000005,-121.92329,Carmel-by-the-Sea,California,Monterey County,US,California
33.36,-71.98,35.26768,-75.54236999999999,Buxton,North Carolina,Dare County,US,North Carolina
42.49,-70.92,42.470929999999996,-70.91755,Swampscott,Massachusetts,Essex County,US,Massachusetts
41.27,-122.54,41.42265,-122.38613000000001,Weed,California,Siskiyou County,US,California
40.78,-93.97,40.62278,-93.93412,Lamoni,Iowa,Decatur County,US,Iowa
26.97,-123.07,33.34281,-118.32785,Avalon,California,Los Angeles County,US,California
40.01,-102.99,40.160540000000005,-103.21438,Akron,Colorado,Washington County,US,Colorado
49.45,-91.83,48.75667,-91.62409,Atikokan,Ontario,Rainy River District,CA,None
41.71,-73.62,41.741209999999995,-73.57652,Dover Plains,New York,Dutchess County,US,New York
32.46,-123.07,34.63915,-120.45794,Lompoc,California,Santa Barbara County,US,California
32.55,-95.42,32.5157,-95.4094,Lindale,Texas,Smith County,US,Texas
37.48,-123.87,38.33325,-123.04806,Bodega Bay,California,Sonoma County,US,California
26.89,-75.32,26.541240000000002,-77.0636,Marsh Harbour,Central Abaco,,BS,None
45.53,-86.42,45.95775,-86.24625,Manistique,Michigan,Schoolcraft County,US,Michigan
42.07,-67.09,43.83345,-66.11556999999999,Yarmouth,Nova Scotia,,CA,None
27.63,-119.66,30.407220000000002,-115.88722,Luis Rodriguez (El Vergel),Baja California,Ensenada,MX,None
40.72,-82.51,40.758390000000006,-82.51545,Mansfield,Ohio,Richland County,US,Ohio
32.41,-68.9,32.2949,-64.78303000000001,Hamilton,Hamilton city,,BM,None
27.03,-77.09,26.866670000000003,-77.51666999999999,Cooper's Town,North Abaco,,BS,None
45.08,-68.66,45.08034,-68.65086,Greenbush,Maine,Penobscot County,US,Maine
38.07,-90.0,37.98144,-90.04178,Sainte Genevieve,Missouri,Sainte Genevieve County,US,Missouri
26.67,-122.51,30.407220000000002,-115.88722,Luis Rodriguez (El Vergel),Baja California,Ensenada,MX,None
41.23,-95.28,41.30916,-95.39667,Oakland,Iowa,Pottawattamie County,US,Iowa
33.68,-95.94,33.58344,-95.90997,Honey Grove,Texas,Fannin County,US,Texas
35.45,-109.21,35.28308,-109.20703999999999,Houck,Arizona,Apache County,US,Arizona
40.32,-112.35,40.53078,-112.29828,Tooele,Utah,Tooele County,US,Utah
31.68,-108.23,31.533959999999997,-107.73835,Guadalupe Victoria,Chihuahua,Ascension,MX,None
28.7,-99.26,28.667479999999998,-99.17059,Dilley,Texas,Frio County,US,Texas
26.37,-93.24,29.30135,-94.7977,Galveston,Texas,Galveston County,US,Texas
39.37,-99.87,39.36473,-99.84206,Hill City,Kansas,Graham County,US,Kansas
37.9,-94.12,37.876979999999996,-94.02133,El Dorado Springs,Missouri,Cedar County,US,Missouri
33.5,-97.07,33.57705,-97.01306,Lake Kiowa,Texas,Cooke County,US,Texas
48.02,-84.61,49.21451,-84.77617,Hornepayne,Ontario,Algoma,CA,None
31.01,-72.61,35.26768,-75.54236999999999,Buxton,North Carolina,Dare County,US,North Carolina
50.8,-108.12,50.28337,-107.80135,Swift Current,Saskatchewan,,CA,None
39.06,-115.34,39.247440000000005,-114.88863,Ely,Nevada,White Pine County,US,Nevada
40.9,-85.5,40.8831,-85.49748000000001,Huntington,Indiana,Huntington County,US,Indiana
31.13,-77.85,32.786840000000005,-79.7948,Isle of Palms,South Carolina,Charleston County,US,South Carolina
49.79,-99.79,49.846920000000004,-99.95306,Brandon,Manitoba,,CA,None
49.86,-101.11,49.8508,-100.93262,Virden,Manitoba,,CA,None
38.0,-102.06,37.98057,-101.75267,Syracuse,Kansas,Hamilton County,US,Kansas
24.86,-80.38,25.01152,-80.51505999999999,Tavernier,Florida,Monroe County,US,Florida
50.79,-88.17,49.73343,-87.16668,Greenstone,Ontario,,CA,None
24.97,-73.56,24.05179,-74.53138,Cockburn Town,San Salvador,,BS,None
32.52,-90.65,32.44014,-90.54899,Lynchburg,Mississippi,Hinds County,US,Mississippi
34.26,-80.71,34.22737,-80.68925,Lugoff,South Carolina,Kershaw County,US,South Carolina
46.62,-101.5,46.41778,-101.56487,Carson,North Dakota,Grant County,US,North Dakota
47.79,-98.1,48.04278,-98.33621,Lakota,North Dakota,Nelson County,US,North Dakota
39.07,-81.96,38.986470000000004,-81.97346999999999,New Haven,West Virginia,Mason County,US,West Virginia
33.13,-93.26,33.267070000000004,-93.23933000000001,Magnolia,Arkansas,Columbia County,US,Arkansas
41.87,-81.15,41.760329999999996,-81.14093000000001,Perry,Ohio,Lake County,US,Ohio
44.72,-117.31,44.77487,-117.83438000000001,Baker City,Oregon,Baker County,US,Oregon
44.7,-114.64,44.50464,-114.23173,Challis,Idaho,Custer County,US,Idaho
30.59,-90.74,30.502129999999998,-90.74786999999999,Livingston,Louisiana,Livingston Parish,US,Louisiana
46.53,-101.58,46.41778,-101.56487,Carson,North Dakota,Grant County,US,North Dakota
47.99,-92.51,47.531040000000004,-92.57907,Parkville,Minnesota,Saint Louis County,US,Minnesota
25.52,-68.53,21.46122,-71.14188,Cockburn Town,,,TC,None
38.96,-72.05,40.80316,-72.61454,Westhampton Beach,New York,Suffolk County,US,New York
37.73,-70.37,41.28346,-70.09946,Nantucket,Massachusetts,Nantucket County,US,Massachusetts
47.37,-114.19,47.52882,-114.1015,Ronan,Montana,Lake County,US,Montana
35.99,-76.09,35.91766,-76.25215,Columbia,North Carolina,Tyrrell County,US,North Carolina
42.73,-93.02,42.55415,-93.05326,Ackley,Iowa,Hardin County,US,Iowa
48.89,-67.27,48.82857,-67.52197,Matane,Quebec,Bas-Saint-Laurent,CA,None
48.73,-99.1,48.486670000000004,-99.20985999999999,Cando,North Dakota,Towner County,US,North Dakota
35.1,-99.35,34.96228,-99.38064,Granite,Oklahoma,Greer County,US,Oklahoma
31.01,-101.32,31.191540000000003,-101.46039,Big Lake,Texas,Reagan County,US,Texas
37.17,-120.64,37.34772,-120.60908,Atwater,California,Merced County,US,California
45.37,-90.04,45.47108,-89.72986,Tomahawk,Wisconsin,Lincoln County,US,Wisconsin
44.27,-80.55,44.0787,-80.20408,Shelburne,Ontario,,CA,None
44.64,-108.47,44.83745,-108.38956,Lovell,Wyoming,Big Horn County,US,Wyoming
32.31,-123.58,34.63915,-120.45794,Lompoc,California,Santa Barbara County,US,California
33.96,-66.26,32.2949,-64.78303000000001,Hamilton,Hamilton city,,BM,None
50.51,-116.01,50.516659999999995,-116.03538,Invermere,British Columbia,,CA,None
24.03,-107.03,23.99111,-106.95638999999998,Pueblo Nuevo,Sinaloa,Elota,MX,None
37.64,-97.35,37.692240000000005,-97.33754,Wichita,Kansas,Sedgwick County,US,Kansas
47.86,-116.1,47.53826,-116.11933,Kellogg,Idaho,Shoshone County,US,Idaho
38.25,-70.54,41.28346,-70.09946,Nantucket,Massachusetts,Nantucket County,US,Massachusetts
32.91,-97.94,32.80846,-98.11282,Mineral Wells,Texas,Palo Pinto County,US,Texas
36.84,-106.45,36.90307,-106.57948,Chama,New Mexico,Rio Arriba County,US,New Mexico
35.07,-110.28,34.955859999999994,-110.33401,Joseph City,Arizona,Navajo County,US,Arizona
24.7,-72.1,22.366670000000003,-72.96667,Abraham's Bay,Mayaguana,,BS,None
32.28,-110.39,31.99008,-110.43535,Mescal,Arizona,Cochise County,US,Arizona
26.33,-87.89,29.236620000000002,-89.98729,Grand Isle,Louisiana,Jefferson Parish,US,Louisiana
38.91,-89.53,38.89227,-89.41314,Greenville,Illinois,Bond County,US,Illinois
28.44,-90.19,29.236620000000002,-89.98729,Grand Isle,Louisiana,Jefferson Parish,US,Louisiana
34.28,-99.17,34.155359999999995,-99.26628000000001,Vernon,Texas,Wilbarger County,US,Texas
35.61,-68.8,32.2949,-64.78303000000001,Hamilton,Hamilton city,,BM,None
29.97,-91.21,29.9652,-91.20316,Pierre Part,Louisiana,Assumption Parish,US,Louisiana
47.75,-109.12,47.062470000000005,-109.42823999999999,Lewistown,Montana,Fergus County,US,Montana
33.32,-77.25,33.99684,-77.90720999999999,Kure Beach,North Carolina,New Hanover County,US,North Carolina
28.28,-88.46,29.480490000000003,-89.69395,Port Sulphur,Louisiana,Plaquemines Parish,US,Louisiana
40.37,-86.48,40.27948,-86.51084,Frankfort,Indiana,Clinton County,US,Indiana
44.76,-78.79,44.298970000000004,-78.55989,Omemee,Ontario,,CA,None
25.14,-92.0,21.166999999999998,-90.02532,Sisal,Yucatan,Hunucma,MX,None
42.46,-67.43,43.83345,-66.11556999999999,Yarmouth,Nova Scotia,,CA,None
31.18,-82.35,31.21368,-82.3557,Waycross,Georgia,Ware County,US,Georgia
32.29,-66.39,32.2949,-64.78303000000001,Hamilton,Hamilton city,,BM,None
38.21,-113.78,37.57359,-113.71913,Enterprise,Utah,Washington County,US,Utah
50.75,-111.01,50.050059999999995,-110.66833999999999,Medicine Hat,Alberta,,CA,None
44.53,-75.29,44.595620000000004,-75.16909,Canton,New York,St. Lawrence County,US,New York
50.5,-71.66,48.88332,-72.08247,Pont Rouge,Quebec,,CA,None
32.35,-90.66,32.33015,-90.60565,Edwards,Mississippi,Hinds County,US,Mississippi
36.53,-67.82,32.38167,-64.67806,Saint George,Saint George,,BM,None
45.37,-84.5,45.41251,-84.61254,Indian River,Michigan,Cheboygan County,US,Michigan
38.25,-122.08,38.249359999999996,-122.03997,Fairfield,California,Solano County,US,California
30.04,-91.47,29.881590000000003,-91.52511,Charenton,Louisiana,Saint Mary Parish,US,Louisiana
36.1,-115.16,36.097190000000005,-115.14666000000001,Paradise,Nevada,Clark County,US,Nevada
47.8,-71.18,48.41648,-71.24884,Jonquiere,Quebec,Saguenay/Lac-Saint-Jean,CA,None
47.71,-101.6,47.65222,-101.41572,Garrison,North Dakota,McLean County,US,North Dakota
29.01,-92.55,30.026040000000002,-92.50846999999999,Gueydan,Louisiana,Vermilion Parish,US,Louisiana
42.23,-120.82,42.18877,-120.34579,Lakeview,Oregon,Lake County,US,Oregon
35.74,-100.34,35.91282,-100.38208,Canadian,Texas,Hemphill County,US,Texas
31.47,-107.84,31.533959999999997,-107.73835,Guadalupe Victoria,Chihuahua,Ascension,MX,None
35.43,-107.68,35.147259999999996,-107.85145,Grants,New Mexico,Cibola County,US,New Mexico
24.08,-76.08,24.1,-76.38333,Black Point,Black Point,,BS,None
41.62,-84.06,41.57366,-84.00522,Delta,Ohio,Fulton County,US,Ohio
40.69,-98.22,40.6189,-98.09727,Harvard,Nebraska,Clay County,US,Nebraska
40.7,-116.55,40.64213,-116.93427,Battle Mountain,Nevada,Lander County,US,Nevada
47.36,-83.58,46.25006,-83.5666,Thessalon,Ontario,,CA,None
40.5,-74.94,40.51233,-74.85933,Flemington,New Jersey,Hunterdon County,US,New Jersey
47.93,-95.97,48.11914,-96.18115,Thief River Falls,Minnesota,Pennington County,US,Minnesota
50.24,-90.43,48.75667,-91.62409,Atikokan,Ontario,Rainy River District,CA,None
36.69,-120.72,36.96439,-120.65324,South Dos Palos,California,Merced County,US,California
27.0,-111.79,26.891409999999997,-111.9826,Mulege,Baja California Sur,,MX,None
40.03,-90.58,40.121159999999996,-90.56318,Rushville,Illinois,Schuyler County,US,Illinois
33.74,-103.73,34.18619,-103.3344,Portales,New Mexico,Roosevelt County,US,New Mexico
35.7,-89.63,35.74536,-89.5298,Ripley,Tennessee,Lauderdale County,US,Tennessee
34.36,-92.0,34.273990000000005,-92.09098,White Hall,Arkansas,Jefferson County,US,Arkansas
46.03,-106.28,45.884159999999994,-106.62364,Colstrip,Montana,Rosebud County,US,Montana
26.78,-119.93,30.407220000000002,-115.88722,Luis Rodriguez (El Vergel),Baja California,Ensenada,MX,None
28.4,-77.41,26.866670000000003,-77.51666999999999,Cooper's Town,North Abaco,,BS,None
48.27,-123.23,48.44964,-123.3026,Oak Bay,British Columbia,,CA,None
37.7,-90.94,37.43505,-90.95846,Centerville,Missouri,Reynolds County,US,Missouri
28.61,-111.57,28.72268,-111.58686999999999,La Providencia,Sonora,,MX,None
48.67,-85.88,48.7501,-86.43321999999999,Marathon,Ontario,,CA,None
37.94,-114.17,37.92969,-114.45221000000001,Pioche,Nevada,Lincoln County,US,Nevada
36.16,-104.14,35.77698,-103.95664000000001,Mosquero,New Mexico,Harding County,US,New Mexico
48.28,-78.8,48.23656,-79.02311,Rouyn-Noranda,Quebec,Abitibi-Temiscamingue,CA,None
45.97,-75.81,45.6668,-75.83265,Wakefield,Quebec,Outaouais,CA,None
32.16,-111.85,31.912020000000002,-111.88123,Sells,Arizona,Pima County,US,Arizona
27.73,-109.5,27.841109999999997,-109.36806000000001,Rosario,Sonora,Rosario,MX,None
44.65,-110.32,44.66215,-111.10411,West Yellowstone,Montana,Gallatin County,US,Montana
42.62,-115.22,42.9549,-115.3009,Glenns Ferry,Idaho,Elmore County,US,Idaho
40.13,-106.66,40.05887,-106.38892,Kremmling,Colorado,Grand County,US,Colorado
37.51,-89.19,37.53144,-89.25341999999999,Cobden,Illinois,Union County,US,Illinois
39.77,-68.03,41.28346,-70.09946,Nantucket,Massachusetts,Nantucket County,US,Massachusetts
40.37,-68.14,41.28346,-70.09946,Nantucket,Massachusetts,Nantucket County,US,Massachusetts
49.77,-105.16,50.40005,-105.53445,Moose Jaw,Saskatchewan,,CA,None
40.66,-105.01,40.70387,-105.00858999999998,Wellington,Colorado,Larimer County,US,Colorado
40.13,-88.05,40.1117,-88.0417,Saint Joseph,Illinois,Champaign County,US,Illinois
35.33,-102.9,35.24283,-102.42826,Vega,Texas,Oldham County,US,Texas
50.7,-93.17,50.63955,-93.23526,Ear Falls,Ontario,,CA,None
37.72,-109.36,37.624159999999996,-109.47818000000001,Blanding,Utah,San Juan County,US,Utah
36.48,-94.71,36.42119,-94.7969,Jay,Oklahoma,Delaware County,US,Oklahoma
36.06,-90.64,36.0584,-90.49733,Paragould,Arkansas,Greene County,US,Arkansas
44.83,-121.49,44.76345,-121.26616000000001,Warm Springs,Oregon,Jefferson County,US,Oregon
37.63,-117.77,37.70854,-117.23563,Goldfield,Nevada,Esmeralda County,US,Nevada
43.57,-110.59,43.479929999999996,-110.76243000000001,Jackson,Wyoming,Teton County,US,Wyoming
48.14,-120.95,47.59623,-120.66148000000001,Leavenworth,Washington,Chelan County,US,Washington
47.24,-79.61,47.33345,-79.43297,Ville-Marie,Quebec,Abitibi-Temiscamingue,CA,None
42.53,-121.44,42.20681,-121.73722,Altamont,Oregon,Klamath County,US,Oregon
28.02,-123.57,34.63915,-120.45794,Lompoc,California,Santa Barbara County,US,California
26.31,-97.6,26.23535,-97.58193,Rio Hondo,Texas,Cameron County,US,Texas
26.98,-117.35,27.14231,-114.29581999999999,Bahia Asuncion,Baja California Sur,Mulege,MX,None
40.35,-66.56,43.83345,-66.11556999999999,Yarmouth,Nova Scotia,,CA,None
45.74,-83.19,46.25006,-83.5666,Thessalon,Ontario,,CA,None
25.71,-81.47,25.9726,-81.72898,Marco,Florida,Collier County,US,Florida
46.21,-104.95,45.88889,-104.55273000000001,Ekalaka,Montana,Carter County,US,Montana
48.34,-72.01,48.41,-71.78,Metabetchouan-Lac-a-la-Croix,Quebec,Saguenay/Lac-Saint-Jean,CA,None
43.91,-87.02,43.95528,-86.45258000000001,Ludington,Michigan,Mason County,US,Michigan
34.56,-67.82,32.2949,-64.78303000000001,Hamilton,Hamilton city,,BM,None
25.51,-110.46,26.01217,-111.34888000000001,Loreto,Baja California Sur,Loreto,MX,None
48.94,-88.06,49.73343,-87.16668,Greenstone,Ontario,,CA,None
35.87,-106.91,35.61392,-106.72587,Jemez Pueblo,New Mexico,Sandoval County,US,New Mexico
45.5,-101.76,45.04748,-101.60099,Dupree,South Dakota,Ziebach County,US,South Dakota
36.07,-85.01,35.94896,-85.0269,Crossville,Tennessee,Cumberland County,US,Tennessee
24.03,-122.97,27.14231,-114.29581999999999,Bahia Asuncion,Baja California Sur,Mulege,MX,None
29.32,-71.01,24.05179,-74.53138,Cockburn Town,San Salvador,,BS,None
31.08,-70.27,32.2949,-64.78303000000001,Hamilton,Hamilton city,,BM,None
30.98,-101.12,30.71017,-101.20067,Ozona,Texas,Crockett County,US,Texas
28.25,-74.78,26.541240000000002,-77.0636,Marsh Harbour,Central Abaco,,BS,None
33.96,-96.17,33.993990000000004,-96.37082,Durant,Oklahoma,Bryan County,US,Oklahoma
31.24,-85.53,31.319059999999997,-85.49382,Midland City,Alabama,Dale County,US,Alabama
29.84,-117.17,30.407220000000002,-115.88722,Luis Rodriguez (El Vergel),Baja California,Ensenada,MX,None
46.56,-88.29,46.7566,-88.45291,L'Anse,Michigan,Baraga County,US,Michigan
38.71,-116.87,38.06716,-117.23008,Tonopah,Nevada,Nye County,US,Nevada
47.06,-102.06,47.26334,-101.77795,Beulah,North Dakota,Mercer County,US,North Dakota
48.03,-78.94,48.23656,-79.02311,Rouyn-Noranda,Quebec,Abitibi-Temiscamingue,CA,None
24.66,-83.02,24.5557,-81.78259,Key West,Florida,Monroe County,US,Florida
46.52,-89.72,46.475229999999996,-89.93989,Wakefield,Michigan,Gogebic County,US,Michigan
42.8,-92.15,42.84748,-92.09156,Sumner,Iowa,Bremer County,US,Iowa
38.75,-105.17,38.74666,-105.17831000000001,Cripple Creek,Colorado,Teller County,US,Colorado
46.55,-71.71,46.68042,-71.7239,Donnacona,Quebec,Capitale-Nationale,CA,None
43.82,-113.3,43.63657,-113.30028,Arco,Idaho,Butte County,US,Idaho
41.78,-82.32,41.42838,-82.32377,Vermilion-on-the-Lake,Ohio,Lorain County,US,Ohio
34.98,-97.05,34.79675,-96.95945999999999,Stratford,Oklahoma,Garvin County,US,Oklahoma
25.56,-98.44,25.98667,-98.22166999999999,Vamos Tamaulipas,Tamaulipas,Reynosa,MX,None
35.33,-122.98,36.555240000000005,-121.92329,Carmel-by-the-Sea,California,Monterey County,US,California
31.01,-104.88,31.040290000000002,-104.83073,Van Horn,Texas,Culberson County,US,Texas
50.48,-81.25,49.416940000000004,-82.43308,Kapuskasing,Ontario,,CA,None
33.71,-95.74,33.660940000000004,-95.55551,Paris,Texas,Lamar County,US,Texas
24.32,-102.64,23.99609,-103.02013000000001,Nieves,Zacatecas,,MX,None
28.89,-85.83,29.81188,-85.30297,Port Saint Joe,Florida,Gulf County,US,Florida
24.81,-120.98,27.14231,-114.29581999999999,Bahia Asuncion,Baja California Sur,Mulege,MX,None
28.0,-85.66,29.81188,-85.30297,Port Saint Joe,Florida,Gulf County,US,Florida
42.72,-68.93,44.01647,-69.19893,Saint George,Maine,Knox County,US,Maine
44.74,-86.94,44.83416,-87.37704000000001,Sturgeon Bay,Wisconsin,Door County,US,Wisconsin
27.31,-94.18,28.954140000000002,-95.35965999999999,Freeport,Texas,Brazoria County,US,Texas
31.06,-112.42,30.84556,-112.63972,El Diamante (La Retranca),Sonora,Caborca,MX,None
47.9,-93.06,47.4891,-92.8838,Chisholm,Minnesota,Saint Louis County,US,Minnesota
33.31,-93.59,33.35846,-93.57768,Lewisville,Arkansas,Lafayette County,US,Arkansas
35.98,-104.2,35.77698,-103.95664000000001,Mosquero,New Mexico,Harding County,US,New Mexico
40.27,-102.31,40.07582,-102.22325,Wray,Colorado,Yuma County,US,Colorado
40.41,-70.94,41.38122,-70.67447,West Tisbury,Massachusetts,Dukes County,US,Massachusetts
45.65,-81.06,45.25007,-81.66646999999999,Tobermory,Ontario,,CA,None
24.97,-94.27,26.10369,-97.16469000000001,South Padre Island,Texas,Cameron County,US,Texas
41.07,-88.31,41.185590000000005,-88.30978,Gardner,Illinois,Grundy County,US,Illinois
36.46,-109.94,36.352779999999996,-109.61788999999999,Many Farms,Arizona,Apache County,US,Arizona
48.88,-121.62,49.23298,-121.76926,Agassiz,British Columbia,,CA,None
31.96,-75.7,34.695159999999994,-76.55937,Harkers Island,North Carolina,Carteret County,US,North Carolina
35.68,-116.72,35.26275,-116.68475,Fort Irwin,California,San Bernardino County,US,California
42.24,-117.19,43.21822,-116.55233999999999,Murphy,Idaho,Owyhee County,US,Idaho
35.06,-101.16,35.11172,-101.36322,Claude,Texas,Armstrong County,US,Texas
25.18,-98.21,24.84749,-98.14828,San Fernando,Tamaulipas,,MX,None
25.15,-122.25,27.14231,-114.29581999999999,Bahia Asuncion,Baja California Sur,Mulege,MX,None
29.97,-82.67,29.826909999999998,-82.59678000000001,High Springs,Florida,Alachua County,US,Florida
29.86,-82.1,29.944129999999998,-82.10983,Starke,Florida,Bradford County,US,Florida
45.67,-112.0,45.87076,-112.09749,Whitehall,Montana,Jefferson County,US,Montana
39.46,-102.01,39.30611,-102.26935999999999,Burlington,Colorado,Kit Carson County,US,Colorado
25.23,-83.5,24.5557,-81.78259,Key West,Florida,Monroe County,US,Florida
40.94,-102.55,41.09277,-102.47074,Chappell,Nebraska,Deuel County,US,Nebraska
34.34,-73.13,35.26768,-75.54236999999999,Buxton,North Carolina,Dare County,US,North Carolina
35.77,-76.29,35.91766,-76.25215,Columbia,North Carolina,Tyrrell County,US,North Carolina
37.39,-89.77,37.38227,-89.66620999999999,Jackson,Missouri,Cape Girardeau County,US,Missouri
42.56,-88.46,42.59168,-88.43343,Lake Geneva,Wisconsin,Walworth County,US,Wisconsin
33.13,-117.78,33.426970000000004,-117.61198999999999,San Clemente,California,Orange County,US,California
25.27,-78.55,25.066670000000002,-78.05,San Andros,North Andros,,BS,None
37.11,-82.37,37.15011,-82.45598000000001,Clintwood,Virginia,Dickenson County,US,Virginia
32.71,-84.48,32.677640000000004,-84.53936999999999,Talbotton,Georgia,Talbot County,US,Georgia
24.45,-72.5,24.05179,-74.53138,Cockburn Town,San Salvador,,BS,None
24.13,-104.3,23.96444,-104.51805999999999,Jose Refugio Salcido,Durango,Durango,MX,None
47.85,-66.9,48.007509999999996,-66.67272,Campbellton,New Brunswick,,CA,None
47.39,-69.25,47.46315,-69.22666,Pohenegamook,Quebec,Bas-Saint-Laurent,CA,None
28.6,-88.29,29.480490000000003,-89.69395,Port Sulphur,Louisiana,Plaquemines Parish,US,Louisiana
24.77,-86.17,22.5875,-83.945,Minas de Matahambre,Pinar del Rio,,CU,None
40.28,-74.8,40.26983,-74.79988,Ewing,New Jersey,Mercer County,US,New Jersey
38.68,-108.27,38.74221,-108.06896,Delta,Colorado,Delta County,US,Colorado
49.74,-115.18,49.499959999999994,-115.06871000000001,Fernie,British Columbia,,CA,None
46.09,-81.99,45.97927,-81.9248,Little Current,Ontario,,CA,None
39.79,-105.41,39.80193,-105.51416,Central City,Colorado,Gilpin County,US,Colorado
29.66,-91.7,29.837979999999998,-91.54428,Baldwin,Louisiana,Saint Mary Parish,US,Louisiana
33.2,-82.05,33.08987,-82.01567,Waynesboro,Georgia,Burke County,US,Georgia
26.75,-72.79,24.05179,-74.53138,Cockburn Town,San Salvador,,BS,None
35.03,-123.83,36.555240000000005,-121.92329,Carmel-by-the-Sea,California,Monterey County,US,California
25.67,-89.96,29.236620000000002,-89.98729,Grand Isle,Louisiana,Jefferson Parish,US,Louisiana
40.74,-75.2,40.693709999999996,-75.19018,Phillipsburg,New Jersey,Warren County,US,New Jersey
44.98,-92.52,44.98386,-92.55603,Roberts,Wisconsin,Saint Croix County,US,Wisconsin
47.66,-97.13,47.49804,-97.32454,Mayville,North Dakota,Traill County,US,North Dakota
31.45,-80.63,32.00022,-80.84567,Tybee Island,Georgia,Chatham County,US,Georgia
30.46,-102.49,30.142409999999998,-102.39403,Sanderson,Texas,Terrell County,US,Texas
24.83,-81.16,24.71375,-81.09035,Marathon,Florida,Monroe County,US,Florida
38.2,-73.21,39.41012,-74.36459,Brigantine,New Jersey,Atlantic County,US,New Jersey
28.71,-108.51,29.193659999999998,-108.14684,San Pedro Madera,Chihuahua,,MX,None
25.38,-104.0,25.2275,-104.11389,Nazas,Durango,Nazas,MX,None
49.7,-106.66,49.883359999999996,-106.55122,Gravelbourg,Saskatchewan,,CA,None
47.85,-67.08,48.007509999999996,-66.67272,Campbellton,New Brunswick,,CA,None
42.35,-83.07,42.33143,-83.04575,Detroit,Michigan,Wayne County,US,Michigan
27.71,-81.4,27.745859999999997,-81.53063,Frostproof,Florida,Polk County,US,Florida
44.51,-75.11,44.595620000000004,-75.16909,Canton,New York,St. Lawrence County,US,New York
49.32,-79.0,48.80019,-79.19964,La Sarre,Quebec,Abitibi-Temiscamingue,CA,None
31.96,-103.97,32.286229999999996,-104.09577,Loving,New Mexico,Eddy County,US,New Mexico
42.94,-78.32,42.86423,-78.28029000000001,Attica,New York,Wyoming County,US,New York
28.67,-84.92,29.72577,-84.98324000000001,Apalachicola,Florida,Franklin County,US,Florida
25.41,-70.64,22.366670000000003,-72.96667,Abraham's Bay,Mayaguana,,BS,None
43.27,-107.96,43.64607,-108.21203999999999,Thermopolis,Wyoming,Hot Springs County,US,Wyoming
50.08,-123.08,50.1164,-122.96946000000001,Whistler,British Columbia,,CA,None
32.51,-87.64,32.44958,-87.51417,Uniontown,Alabama,Perry County,US,Alabama
35.65,-105.69,35.5742,-105.67501999999999,Pecos,New Mexico,San Miguel County,US,New Mexico
39.48,-113.64,39.35218,-112.57717,Delta,Utah,Millard County,US,Utah
44.59,-85.31,44.73417,-85.17589,Kalkaska,Michigan,Kalkaska County,US,Michigan
43.06,-73.14,43.0748,-73.154,Arlington,Vermont,Bennington County,US,Vermont
34.92,-82.53,34.8854,-82.45596,Berea,South Carolina,Greenville County,US,South Carolina
31.71,-113.25,31.86165,-112.85128999999999,Sonoyta,Sonora,,MX,None
33.49,-92.56,33.537890000000004,-92.46988,Hampton,Arkansas,Calhoun County,US,Arkansas
40.72,-79.65,40.67395,-79.68477,Freeport,Pennsylvania,Armstrong County,US,Pennsylvania
34.97,-74.77,35.26768,-75.54236999999999,Buxton,North Carolina,Dare County,US,North Carolina
34.32,-99.33,34.155359999999995,-99.26628000000001,Vernon,Texas,Wilbarger County,US,Texas
27.56,-115.82,27.14231,-114.29581999999999,Bahia Asuncion,Baja California Sur,Mulege,MX,None
36.37,-120.61,36.13968,-120.36015,Coalinga,California,Fresno County,US,California
25.08,-67.44,21.46122,-71.14188,Cockburn Town,,,TC,None
33.63,-76.15,34.695159999999994,-76.55937,Harkers Island,North Carolina,Carteret County,US,North Carolina
37.56,-96.35,37.47031,-96.26361,Howard,Kansas,Elk County,US,Kansas
25.8,-70.46,22.366670000000003,-72.96667,Abraham's Bay,Mayaguana,,BS,None
44.97,-107.48,44.79719,-106.95618,Sheridan,Wyoming,Sheridan County,US,Wyoming
42.41,-103.2,42.10163,-102.87215,Alliance,Nebraska,Box Butte County,US,Nebraska
39.91,-116.03,39.51271,-115.96061,Eureka,Nevada,Eureka County,US,Nevada
41.8,-95.24,41.653040000000004,-95.32555,Harlan,Iowa,Shelby County,US,Iowa
37.45,-76.35,37.43708,-76.31994,Mathews,Virginia,Mathews County,US,Virginia
37.22,-112.15,37.04749,-112.52631000000001,Kanab,Utah,Kane County,US,Utah
25.76,-88.33,29.236620000000002,-89.98729,Grand Isle,Louisiana,Jefferson Parish,US,Louisiana
33.43,-76.56,34.695159999999994,-76.55937,Harkers Island,North Carolina,Carteret County,US,North Carolina
32.77,-73.07,35.26768,-75.54236999999999,Buxton,North Carolina,Dare County,US,North Carolina
50.24,-114.64,50.05007,-114.8854,Elkford,British Columbia,,CA,None
42.04,-84.6,41.98421,-84.6619,Jonesville,Michigan,Hillsdale County,US,Michigan
28.39,-96.46,28.44834,-96.40581,Port O'Connor,Texas,Calhoun County,US,Texas
49.13,-104.63,48.77475,-104.56246,Plentywood,Montana,Sheridan County,US,Montana
24.77,-96.51,25.262220000000003,-97.43611,Las Higuerillas,Tamaulipas,Matamoros,MX,None
39.65,-82.5,39.662009999999995,-82.43349,Geneva,Ohio,Fairfield County,US,Ohio
46.44,-69.74,46.06677,-70.51573,Saint-Come--Liniere,Quebec,Chaudiere-Appalaches,CA,None
38.16,-74.23,38.3365,-75.08491,Ocean City,Maryland,Worcester County,US,Maryland
44.99,-89.07,45.14025,-89.15234,Antigo,Wisconsin,Langlade County,US,Wisconsin
49.83,-82.74,49.416940000000004,-82.43308,Kapuskasing,Ontario,,CA,None
35.98,-123.76,36.58635,-121.94746,Del Monte Forest,California,Monterey County,US,California
31.58,-66.86,32.2949,-64.78303000000001,Hamilton,Hamilton city,,BM,None
31.37,-80.96,31.150509999999997,-81.36954,Saint Simons Island,Georgia,Glynn County,US,Georgia
27.05,-77.33,26.866670000000003,-77.51666999999999,Cooper's Town,North Abaco,,BS,None
49.9,-91.98,49.78334,-92.75032,Dryden,Ontario,,CA,None
39.69,-92.18,39.69393,-92.04295,Shelbina,Missouri,Shelby County,US,Missouri
40.99,-99.76,40.780840000000005,-99.7415,Lexington,Nebraska,Dawson County,US,Nebraska
26.47,-82.42,26.613690000000002,-82.11815,Pine Island Center,Florida,Lee County,US,Florida
48.57,-110.84,48.51054,-110.96746999999999,Chester,Montana,Liberty County,US,Montana
35.2,-68.29,32.2949,-64.78303000000001,Hamilton,Hamilton city,,BM,None
50.76,-91.96,49.78334,-92.75032,Dryden,Ontario,,CA,None
31.44,-107.01,31.855940000000004,-106.63916,Santa Teresa,New Mexico,Dona Ana County,US,New Mexico
29.86,-73.19,26.541240000000002,-77.0636,Marsh Harbour,Central Abaco,,BS,None
43.86,-80.63,43.7251,-80.96723,North Perth,Ontario,,CA,None
36.15,-98.33,36.11615,-98.31702,Okeene,Oklahoma,Blaine County,US,Oklahoma
33.41,-96.57,33.4215,-96.57721,Van Alstyne,Texas,Grayson County,US,Texas
34.3,-82.4,34.33345,-82.3879,Due West,South Carolina,Abbeville County,US,South Carolina
44.95,-93.11,44.94441,-93.09326999999999,Saint Paul,Minnesota,Ramsey County,US,Minnesota
24.61,-76.53,24.1,-76.38333,Black Point,Black Point,,BS,None
32.05,-66.4,32.2949,-64.78303000000001,Hamilton,Hamilton city,,BM,None
36.7,-100.97,36.86003,-101.2135,Hooker,Oklahoma,Texas County,US,Oklahoma
37.31,-106.76,37.26945,-107.00976000000001,Pagosa Springs,Colorado,Archuleta County,US,Colorado
33.29,-73.02,35.26768,-75.54236999999999,Buxton,North Carolina,Dare County,US,North Carolina
48.61,-85.98,48.7501,-86.43321999999999,Marathon,Ontario,,CA,None
34.89,-115.05,34.84806,-114.61413,Needles,California,San Bernardino County,US,California
33.51,-84.31,33.5215,-84.35381,Jonesboro,Georgia,Clayton County,US,Georgia
27.75,-66.35,32.2949,-64.78303000000001,Hamilton,Hamilton city,,BM,None
39.86,-97.28,39.818059999999996,-97.05086,Washington,Kansas,Washington County,US,Kansas
30.25,-116.86,30.515829999999998,-115.93278000000001,Pueblo Benito Garcia,Baja California,Ensenada,MX,None
30.53,-111.32,30.54265,-111.12086000000001,Santa Ana,Sonora,,MX,None
33.82,-91.64,33.88705,-91.49179000000001,Dumas,Arkansas,Desha County,US,Arkansas
26.62,-66.0,32.2949,-64.78303000000001,Hamilton,Hamilton city,,BM,None
31.38,-98.75,31.19572,-98.7181,San Saba,Texas,San Saba County,US,Texas
34.74,-111.77,34.7803,-111.76265,Big Park,Arizona,Yavapai County,US,Arizona
26.95,-81.73,26.71896,-81.7123,Olga,Florida,Lee County,US,Florida
31.39,-94.83,31.32268,-94.77826,Hudson,Texas,Angelina County,US,Texas
36.08,-118.61,35.72912,-118.54953,Alta Sierra,California,Kern County,US,California
32.02,-118.76,33.34281,-118.32785,Avalon,California,Los Angeles County,US,California
40.67,-96.49,40.62,-96.62918,Hickman,Nebraska,Lancaster County,US,Nebraska
47.3,-81.2,46.60873,-81.20763000000001,Rayside-Balfour,Ontario,,CA,None
40.0,-66.99,41.28346,-70.09946,Nantucket,Massachusetts,Nantucket County,US,Massachusetts
48.64,-116.5,48.69133,-116.31631000000002,Bonners Ferry,Idaho,Boundary County,US,Idaho
34.94,-94.58,34.88927,-94.60078,Heavener,Oklahoma,Le Flore County,US,Oklahoma
44.99,-103.82,44.67137,-103.85215,Belle Fourche,South Dakota,Butte County,US,South Dakota
34.43,-96.5,34.23621,-96.67860999999999,Tishomingo,Oklahoma,Johnston County,US,Oklahoma
37.48,-81.68,37.43289,-81.58455,Welch,West Virginia,McDowell County,US,West Virginia
39.33,-83.2,39.40145,-83.18074,Frankfort,Ohio,Ross County,US,Ohio
26.41,-71.67,24.05179,-74.53138,Cockburn Town,San Salvador,,BS,None
50.23,-73.21,49.91684,-74.36586,Chibougamau,Quebec,Nord-du-Quebec,CA,None
34.2,-107.34,34.42089,-107.51088,Alamo,New Mexico,Socorro County,US,New Mexico
50.96,-73.56,49.91684,-74.36586,Chibougamau,Quebec,Nord-du-Quebec,CA,None
26.89,-82.27,26.88368,-82.29009,Rotonda,Florida,Charlotte County,US,Florida
37.14,-123.33,37.527440000000006,-122.51331,Moss Beach,California,San Mateo County,US,California
39.84,-76.0,39.78539,-75.97883,Oxford,Pennsylvania,Chester County,US,Pennsylvania
44.93,-77.23,45.057520000000004,-77.85701999999999,Bancroft,Ontario,,CA,None
50.64,-123.56,50.1164,-122.96946000000001,Whistler,British Columbia,,CA,None
45.16,-106.64,45.62305,-106.6667,Lame Deer,Montana,Rosebud County,US,Montana
26.51,-84.0,27.46698,-82.70399,Bradenton Beach,Florida,Manatee County,US,Florida
29.87,-112.47,29.91313,-112.69179,La Libertad,Sonora,,MX,None
33.36,-87.5,33.23401,-87.48445,Holt,Alabama,Tuscaloosa County,US,Alabama
33.28,-70.28,32.2949,-64.78303000000001,Hamilton,Hamilton city,,BM,None
25.87,-108.09,25.8219,-108.22261,Sinaloa de Leyva,Sinaloa,,MX,None
30.99,-118.85,32.360440000000004,-117.04645,Rosarito,Baja California,,MX,None
29.7,-120.77,33.34281,-118.32785,Avalon,California,Los Angeles County,US,California
41.16,-79.99,41.15784,-80.08867,Grove City,Pennsylvania,Mercer County,US,Pennsylvania
24.42,-90.0,21.28546,-89.64744,Progreso de Castro,Yucatan,,MX,None
33.44,-78.99,33.551,-79.04143,Murrells Inlet,South Carolina,Georgetown County,US,South Carolina
46.35,-102.52,46.3725,-102.32711,Mott,North Dakota,Hettinger County,US,North Dakota
32.14,-66.74,32.2949,-64.78303000000001,Hamilton,Hamilton city,,BM,None
46.6,-69.0,47.25865,-68.58949,Fort Kent,Maine,Aroostook County,US,Maine
35.96,-122.85,36.58635,-121.94746,Del Monte Forest,California,Monterey County,US,California
31.43,-78.77,32.65518,-79.94037,Folly Beach,South Carolina,Charleston County,US,South Carolina
33.46,-105.71,33.33175,-105.67303999999999,Ruidoso,New Mexico,Lincoln County,US,New Mexico
29.81,-76.73,26.866670000000003,-77.51666999999999,Cooper's Town,North Abaco,,BS,None
38.45,-85.45,38.38368,-85.43996,Buckner,Kentucky,Oldham County,US,Kentucky
30.53,-103.27,30.358620000000002,-103.66206,Alpine,Texas,Brewster County,US,Texas
40.14,-102.08,40.07582,-102.22325,Wray,Colorado,Yuma County,US,Colorado
41.95,-108.91,41.58746,-109.2029,Rock Springs,Wyoming,Sweetwater County,US,Wyoming
45.29,-90.12,45.03302,-90.07401999999999,Athens,Wisconsin,Marathon County,US,Wisconsin
48.34,-117.67,48.27629,-117.71552,Chewelah,Washington,Stevens County,US,Washington
35.03,-85.89,34.86869,-85.83941999999999,Stevenson,Alabama,Jackson County,US,Alabama
24.53,-101.39,24.61326,-101.41844,Concepcion del Oro,Zacatecas,,MX,None
29.97,-106.24,30.14937,-106.88362,Ejido Benito Juarez,Chihuahua,Buenaventura,MX,None
41.93,-77.09,41.8073,-77.07746999999999,Mansfield,Pennsylvania,Tioga County,US,Pennsylvania
32.14,-67.54,32.2949,-64.78303000000001,Hamilton,Hamilton city,,BM,None
27.15,-87.66,29.480490000000003,-89.69395,Port Sulphur,Louisiana,Plaquemines Parish,US,Louisiana
37.5,-79.2,37.4032,-79.17808000000001,West Lynchburg,Virginia,City of Lynchburg,US,Virginia
43.82,-96.89,43.761359999999996,-96.74033,Baltic,South Dakota,Minnehaha County,US,South Dakota
49.48,-69.2,48.73808,-69.08478000000001,Forestville,Quebec,Cote-Nord,CA,None
26.77,-67.83,21.46122,-71.14188,Cockburn Town,,,TC,None
24.05,-112.67,24.93,-111.62806,Villa Morelos,Baja California Sur,Comondu,MX,None
29.94,-107.76,29.746240000000004,-107.93966,Benito Juarez,Chihuahua,,MX,None
36.53,-69.38,41.28346,-70.09946,Nantucket,Massachusetts,Nantucket County,US,Massachusetts
33.61,-122.13,34.63915,-120.45794,Lompoc,California,Santa Barbara County,US,California
32.83,-93.65,32.90514,-93.69684000000001,Plain Dealing,Louisiana,Bossier Parish,US,Louisiana
32.33,-121.29,34.63915,-120.45794,Lompoc,California,Santa Barbara County,US,California
50.65,-106.52,49.883359999999996,-106.55122,Gravelbourg,Saskatchewan,,CA,None
45.1,-67.04,45.0737,-67.05311999999999,Saint Andrews,New Brunswick,Charlotte County,CA,None
26.24,-123.46,30.407220000000002,-115.88722,Luis Rodriguez (El Vergel),Baja California,Ensenada,MX,None
44.82,-103.35,44.40971,-103.50908000000001,Sturgis,South Dakota,Meade County,US,South Dakota
46.8,-84.28,46.51677,-84.33325,Sault Ste. Marie,Ontario,Algoma,CA,None
49.31,-87.81,49.73343,-87.16668,Greenstone,Ontario,,CA,None
38.05,-105.32,38.13472,-105.46583999999999,Westcliffe,Colorado,Custer County,US,Colorado
28.09,-72.42,24.05179,-74.53138,Cockburn Town,San Salvador,,BS,None
28.44,-94.52,29.30135,-94.7977,Galveston,Texas,Galveston County,US,Texas
30.4,-118.63,31.720990000000004,-116.57184,Rodolfo Sanchez Taboada,Baja California,,MX,None
39.73,-120.4,39.81046,-120.4691,Portola,California,Plumas County,US,California
31.58,-73.06,35.26768,-75.54236999999999,Buxton,North Carolina,Dare County,US,North Carolina
33.98,-117.23,33.93752,-117.23058999999999,Moreno Valley,California,Riverside County,US,California
28.56,-76.63,26.866670000000003,-77.51666999999999,Cooper's Town,North Abaco,,BS,None
32.29,-85.39,32.42403,-85.69162,Tuskegee,Alabama,Macon County,US,Alabama
42.55,-83.15,42.53337,-83.14631999999999,Clawson,Michigan,Oakland County,US,Michigan
43.41,-100.63,43.30584,-100.65819,Mission,South Dakota,Todd County,US,South Dakota
26.61,-76.18,26.541240000000002,-77.0636,Marsh Harbour,Central Abaco,,BS,None
28.58,-97.99,28.46027,-98.18251,Three Rivers,Texas,Live Oak County,US,Texas
32.52,-78.84,33.03767,-79.61313,Awendaw,South Carolina,Charleston County,US,South Carolina
42.99,-73.12,43.0748,-73.154,Arlington,Vermont,Bennington County,US,Vermont
47.38,-86.9,46.54354,-87.39542,Marquette,Michigan,Marquette County,US,Michigan
34.29,-67.62,32.2949,-64.78303000000001,Hamilton,Hamilton city,,BM,None
41.78,-71.08,41.79594,-71.06782,Assonet,Massachusetts,Bristol County,US,Massachusetts
49.27,-77.31,49.05018,-76.98273,Lebel-sur-Quevillon,Quebec,Nord-du-Quebec,CA,None
35.78,-88.97,35.819790000000005,-88.9159,Humboldt,Tennessee,Gibson County,US,Tennessee
42.23,-74.68,42.4073,-74.61431999999999,Stamford,New York,Delaware County,US,New York
38.19,-109.9,38.57332,-109.54983999999999,Moab,Utah,Grand County,US,Utah
31.76,-107.86,31.777179999999998,-107.63439,Puerto Palomas,Chihuahua,,MX,None
49.06,-110.19,48.55,-109.68409,Havre,Montana,Hill County,US,Montana
24.11,-103.18,23.99609,-103.02013000000001,Nieves,Zacatecas,,MX,None
43.11,-78.43,43.02089,-78.4953,Akron,New York,Erie County,US,New York
48.89,-112.35,48.63304,-112.32616000000002,Cut Bank,Montana,Glacier County,US,Montana
49.97,-96.72,50.0622,-96.51669,Beausejour,Manitoba,,CA,None
41.25,-71.44,41.432320000000004,-71.45644,Narragansett Pier,Rhode Island,Washington County,US,Rhode Island
31.68,-90.29,31.70128,-90.39759000000001,Wesson,Mississippi,Copiah County,US,Mississippi
45.15,-98.28,45.44746,-98.09871,Groton,South Dakota,Brown County,US,South Dakota
29.08,-74.59,26.541240000000002,-77.0636,Marsh Harbour,Central Abaco,,BS,None
25.54,-84.16,26.925340000000002,-82.35204,Manasota Key,Florida,Charlotte County,US,Florida
37.98,-123.54,38.33325,-123.04806,Bodega Bay,California,Sonoma County,US,California
30.04,-92.66,30.080759999999998,-92.67153,Lake Arthur,Louisiana,Jefferson Davis Parish,US,Louisiana
39.42,-114.06,39.40494,-114.77863,McGill,Nevada,White Pine County,US,Nevada
30.03,-94.76,30.053829999999998,-94.74353,Ames,Texas,Liberty County,US,Texas
35.14,-84.43,34.98619,-84.37131,McCaysville,Georgia,Fannin County,US,Georgia
37.8,-90.64,37.769220000000004,-90.62485,Bismarck,Missouri,Saint Francois County,US,Missouri
46.01,-116.62,46.40489,-116.80487,Lapwai,Idaho,Nez Perce County,US,Idaho
25.92,-67.25,21.46122,-71.14188,Cockburn Town,,,TC,None
47.7,-106.2,48.19696,-106.63671000000001,Glasgow,Montana,Valley County,US,Montana
30.21,-69.71,32.2949,-64.78303000000001,Hamilton,Hamilton city,,BM,None
28.72,-99.04,28.667479999999998,-99.17059,Dilley,Texas,Frio County,US,Texas
41.69,-110.49,41.79245,-110.53766999999999,Kemmerer,Wyoming,Lincoln County,US,Wyoming
48.96,-120.2,49.45802,-120.51076,Princeton,British Columbia,,CA,None
39.96,-74.9,39.934,-74.891,Mount Laurel,New Jersey,Burlington County,US,New Jersey
44.38,-115.2,43.8285,-115.83455,Idaho City,Idaho,Boise County,US,Idaho
45.25,-115.2,44.91101,-116.09873999999999,McCall,Idaho,Valley County,US,Idaho
38.42,-104.11,38.12917,-104.02329,Fowler,Colorado,Otero County,US,Colorado
31.91,-121.65,34.63915,-120.45794,Lompoc,California,Santa Barbara County,US,California
25.53,-114.15,27.14231,-114.29581999999999,Bahia Asuncion,Baja California Sur,Mulege,MX,None
42.06,-95.46,42.01777,-95.35528000000001,Denison,Iowa,Crawford County,US,Iowa
27.72,-83.07,27.826140000000002,-82.82899,Redington Shores,Florida,Pinellas County,US,Florida
29.1,-105.31,28.433329999999998,-105.4,Julimes,Chihuahua,,MX,None
40.62,-70.89,41.38122,-70.67447,West Tisbury,Massachusetts,Dukes County,US,Massachusetts
24.75,-77.4,25.05823,-77.34306,Nassau,New Providence,,BS,None
26.82,-87.58,29.480490000000003,-89.69395,Port Sulphur,Louisiana,Plaquemines Parish,US,Louisiana
28.68,-102.47,27.87933,-101.51615,Melchor Muzquiz,Coahuila,,MX,None
28.58,-77.65,26.866670000000003,-77.51666999999999,Cooper's Town,North Abaco,,BS,None
25.42,-118.27,27.14231,-114.29581999999999,Bahia Asuncion,Baja California Sur,Mulege,MX,None
45.15,-85.57,45.02305,-85.75981,Leland,Michigan,Leelanau County,US,Michigan
45.6,-87.28,45.74525,-87.06458,Escanaba,Michigan,Delta County,US,Michigan
43.41,-100.66,43.30584,-100.65819,Mission,South Dakota,Todd County,US,South Dakota
35.67,-85.64,35.6834,-85.76998,McMinnville,Tennessee,Warren County,US,Tennessee
37.11,-112.08,37.04749,-112.52631000000001,Kanab,Utah,Kane County,US,Utah
25.86,-80.46,25.81954,-80.35533000000001,Doral,Florida,Miami-Dade County,US,Florida
46.74,-96.93,46.75886,-96.9037,Horace,North Dakota,Cass County,US,North Dakota
25.66,-100.69,25.80611,-100.6225,Las Torres de Guadalupe,Nuevo Leon,Garcia,MX,None
50.86,-72.67,49.91684,-74.36586,Chibougamau,Quebec,Nord-du-Quebec,CA,None
35.1,-77.69,34.92378,-77.77387,Beulaville,North Carolina,Duplin County,US,North Carolina
39.99,-79.4,40.12285,-79.4617,Bear Rocks,Pennsylvania,Fayette County,US,Pennsylvania
43.22,-105.51,42.75969,-105.38221000000001,Douglas,Wyoming,Converse County,US,Wyoming
29.72,-98.59,29.74578,-98.64336,Fair Oaks Ranch,Texas,Bexar County,US,Texas
29.17,-116.46,30.407220000000002,-115.88722,Luis Rodriguez (El Vergel),Baja California,Ensenada,MX,None
43.77,-115.33,43.8285,-115.83455,Idaho City,Idaho,Boise County,US,Idaho
39.75,-77.71,39.72482,-77.72444,State Line,Pennsylvania,Franklin County,US,Pennsylvania
40.08,-105.7,39.944990000000004,-105.81723000000001,Fraser,Colorado,Grand County,US,Colorado
24.28,-82.19,24.5557,-81.78259,Key West,Florida,Monroe County,US,Florida
45.64,-116.35,45.92655,-116.12236999999999,Grangeville,Idaho,Idaho County,US,Idaho
46.15,-117.27,46.33933,-117.04821000000001,Asotin,Washington,Asotin County,US,Washington
40.79,-122.19,40.64071,-122.2325,Bella Vista,California,Shasta County,US,California
47.21,-76.66,46.38341,-75.96605,Maniwaki,Quebec,Outaouais,CA,None
32.64,-96.39,32.68319,-96.38554,Talty,Texas,Kaufman County,US,Texas
46.58,-83.43,46.25006,-83.5666,Thessalon,Ontario,,CA,None
28.42,-98.15,28.46027,-98.18251,Three Rivers,Texas,Live Oak County,US,Texas
34.49,-123.02,35.56414,-121.08075,Cambria,California,San Luis Obispo County,US,California
48.7,-83.12,49.416940000000004,-82.43308,Kapuskasing,Ontario,,CA,None
30.35,-122.12,34.63915,-120.45794,Lompoc,California,Santa Barbara County,US,California
26.42,-107.68,25.80944,-107.915,Bacubirito,Sinaloa,Sinaloa,MX,None
37.67,-83.58,37.73425,-83.54741,Campton,Kentucky,Wolfe County,US,Kentucky
35.0,-91.0,35.00815,-90.78983000000001,Forrest City,Arkansas,Saint Francis County,US,Arkansas
47.42,-102.16,47.26334,-101.77795,Beulah,North Dakota,Mercer County,US,North Dakota
38.08,-80.61,38.22484,-80.53314,Richwood,West Virginia,Nicholas County,US,West Virginia
50.04,-119.39,49.883070000000004,-119.48568,Kelowna,British Columbia,,CA,None
38.26,-87.81,38.17004,-87.78308,Poseyville,Indiana,Posey County,US,Indiana
49.18,-86.0,48.7501,-86.43321999999999,Marathon,Ontario,,CA,None
37.45,-98.36,37.28113,-98.58036,Medicine Lodge,Kansas,Barber County,US,Kansas
49.88,-102.09,49.633340000000004,-102.26765,Carlyle,Saskatchewan,,CA,None
49.63,-74.51,49.91684,-74.36586,Chibougamau,Quebec,Nord-du-Quebec,CA,None
25.43,-93.45,26.10369,-97.16469000000001,South Padre Island,Texas,Cameron County,US,Texas
32.71,-122.27,34.63915,-120.45794,Lompoc,California,Santa Barbara County,US,California
38.49,-73.64,39.41012,-74.36459,Brigantine,New Jersey,Atlantic County,US,New Jersey
44.58,-89.7,44.523579999999995,-89.57455999999999,Stevens Point,Wisconsin,Portage County,US,Wisconsin
40.53,-94.21,40.71471,-94.23523,Mount Ayr,Iowa,Ringgold County,US,Iowa
26.49,-74.32,24.6224,-75.67151,Arthur's Town,Cat Island,,BS,None
27.58,-80.24,27.59115,-80.34421999999999,South Beach,Florida,Indian River County,US,Florida
42.61,-99.95,42.55,-99.86261999999999,Ainsworth,Nebraska,Brown County,US,Nebraska
33.72,-94.42,33.721779999999995,-94.39686999999999,Foreman,Arkansas,Little River County,US,Arkansas
32.44,-115.34,32.56654,-115.3534,Puebla,Baja California,,MX,None
38.07,-113.99,37.92969,-114.45221000000001,Pioche,Nevada,Lincoln County,US,Nevada
43.07,-97.46,42.871109999999994,-97.39728000000001,Yankton,South Dakota,Yankton County,US,South Dakota
41.55,-89.36,41.7142,-89.32871,Amboy,Illinois,Lee County,US,Illinois
46.62,-69.46,47.46315,-69.22666,Pohenegamook,Quebec,Bas-Saint-Laurent,CA,None
48.19,-122.66,48.21982,-122.68628000000001,Coupeville,Washington,Island County,US,Washington
49.83,-101.41,50.13332,-101.66766,Moosomin,Saskatchewan,,CA,None
24.46,-123.71,27.14231,-114.29581999999999,Bahia Asuncion,Baja California Sur,Mulege,MX,None
38.83,-78.4,38.88178,-78.50584,Woodstock,Virginia,Shenandoah County,US,Virginia
40.21,-96.38,40.36667,-96.19612,Tecumseh,Nebraska,Johnson County,US,Nebraska
39.03,-77.4,39.04094,-77.4136,Countryside,Virginia,Loudoun County,US,Virginia
42.55,-81.6,42.91679,-81.41646,Delaware,Ontario,,CA,None
49.78,-71.5,48.88332,-72.08247,Pont Rouge,Quebec,,CA,None
39.4,-73.39,39.66206,-74.16514000000001,Surf City,New Jersey,Ocean County,US,New Jersey
24.66,-110.67,24.1025,-110.41443999999998,El Centenario,Baja California Sur,La Paz,MX,None
45.17,-116.94,45.35432,-117.22961000000001,Joseph,Oregon,Wallowa County,US,Oregon
29.19,-102.0,30.142409999999998,-102.39403,Sanderson,Texas,Terrell County,US,Texas
27.43,-81.98,27.493370000000002,-81.79592,Zolfo Springs,Florida,Hardee County,US,Florida
40.21,-84.5,40.22255,-84.4844,Versailles,Ohio,Darke County,US,Ohio
38.32,-104.41,38.25445,-104.60914,Pueblo,Colorado,Pueblo County,US,Colorado
36.46,-121.48,36.50663,-121.44438000000001,Gonzales,California,Monterey County,US,California
30.3,-105.21,31.040290000000002,-104.83073,Van Horn,Texas,Culberson County,US,Texas
29.53,-117.33,30.407220000000002,-115.88722,Luis Rodriguez (El Vergel),Baja California,Ensenada,MX,None
25.94,-123.4,30.407220000000002,-115.88722,Luis Rodriguez (El Vergel),Baja California,Ensenada,MX,None
26.19,-98.59,26.231579999999997,-98.59557,Gustavo Diaz Ordaz,Tamaulipas,,MX,None
41.94,-72.59,41.9626,-72.57148000000001,Southwood Acres,Connecticut,Hartford County,US,Connecticut
43.19,-72.85,43.17702,-73.05705,Manchester Center,Vermont,Bennington County,US,Vermont
32.02,-115.46,32.22756,-115.16792,Doctor Alberto Oviedo Mota,Baja California,,MX,None
40.75,-121.22,40.30627,-121.23191000000001,Chester,California,Plumas County,US,California
48.88,-68.16,48.58388,-68.19214000000001,Mont-Joli,Quebec,Bas-Saint-Laurent,CA,None
28.14,-122.15,33.34281,-118.32785,Avalon,California,Los Angeles County,US,California
37.58,-105.64,37.47735,-105.84217,Alamosa East,Colorado,Alamosa County,US,Colorado
38.1,-118.73,38.524640000000005,-118.62458000000001,Hawthorne,Nevada,Mineral County,US,Nevada
24.36,-87.14,21.5967,-88.15773,Rio Lagartos,Yucatan,,MX,None
45.44,-111.13,45.62965,-111.18606000000001,Four Corners,Montana,Gallatin County,US,Montana
38.0,-110.83,38.40276,-111.64296000000002,Loa,Utah,Wayne County,US,Utah
44.96,-101.57,45.04748,-101.60099,Dupree,South Dakota,Ziebach County,US,South Dakota
37.91,-77.69,37.698479999999996,-77.61249000000001,Wyndham,Virginia,Henrico County,US,Virginia
34.15,-86.71,34.06065,-86.7675,Hanceville,Alabama,Cullman County,US,Alabama
35.67,-120.59,35.62664,-120.691,Paso Robles,California,San Luis Obispo County,US,California
42.01,-88.98,41.95114,-89.06454000000001,Hillcrest,Illinois,Ogle County,US,Illinois
38.99,-89.39,38.89227,-89.41314,Greenville,Illinois,Bond County,US,Illinois
33.75,-110.72,33.40372,-110.81541000000001,Central Heights-Midland City,Arizona,Gila County,US,Arizona
47.48,-93.31,47.28883,-93.42771,Coleraine,Minnesota,Itasca County,US,Minnesota
37.02,-76.54,36.94682,-76.56051,Carrollton,Virginia,Isle of Wight County,US,Virginia
42.49,-116.69,43.21822,-116.55233999999999,Murphy,Idaho,Owyhee County,US,Idaho
41.67,-67.5,41.68206,-69.95974,Chatham,Massachusetts,Barnstable County,US,Massachusetts
26.86,-122.09,30.407220000000002,-115.88722,Luis Rodriguez (El Vergel),Baja California,Ensenada,MX,None
45.76,-112.3,45.87076,-112.09749,Whitehall,Montana,Jefferson County,US,Montana
32.3,-95.1,32.2746,-94.97855,Overton,Texas,Rusk County,US,Texas
25.69,-80.73,25.67149,-80.4445,The Hammocks,Florida,Miami-Dade County,US,Florida
49.5,-72.34,48.88324,-72.44866999999999,Albanel,Quebec,Saguenay/Lac-Saint-Jean,CA,None
48.81,-113.11,48.57025,-113.00953,North Browning,Montana,Glacier County,US,Montana
25.37,-81.79,25.9726,-81.72898,Marco,Florida,Collier County,US,Florida
45.78,-66.15,45.83512,-66.47917,Oromocto,New Brunswick,,CA,None
29.03,-74.2,26.541240000000002,-77.0636,Marsh Harbour,Central Abaco,,BS,None
35.43,-96.62,35.486740000000005,-96.68502,Prague,Oklahoma,Lincoln County,US,Oklahoma
36.73,-105.77,36.70391,-105.59501000000002,Questa,New Mexico,Taos County,US,New Mexico
24.39,-88.86,21.5967,-88.15773,Rio Lagartos,Yucatan,,MX,None
38.35,-119.63,38.25575,-119.23127,Bridgeport,California,Mono County,US,California
31.95,-106.02,31.849629999999998,-106.17285,Homestead Meadows North,Texas,El Paso County,US,Texas
35.83,-88.54,36.00062,-88.42811,Huntingdon,Tennessee,Carroll County,US,Tennessee
28.21,-77.49,26.866670000000003,-77.51666999999999,Cooper's Town,North Abaco,,BS,None
47.26,-81.16,46.60873,-81.20763000000001,Rayside-Balfour,Ontario,,CA,None
39.1,-94.81,39.06112,-94.81968,Edwardsville,Kansas,Wyandotte County,US,Kansas
38.92,-109.43,38.57332,-109.54983999999999,Moab,Utah,Grand County,US,Utah
48.96,-84.69,49.21451,-84.77617,Hornepayne,Ontario,Algoma,CA,None
33.8,-112.62,33.96864,-112.72962,Wickenburg,Arizona,Maricopa County,US,Arizona
40.94,-67.99,41.68206,-69.95974,Chatham,Massachusetts,Barnstable County,US,Massachusetts
41.89,-107.42,41.79107,-107.23866000000001,Rawlins,Wyoming,Carbon County,US,Wyoming
49.9,-123.51,49.475120000000004,-123.75903000000001,Sechelt,British Columbia,Sunshine Coast Regional District,CA,None
43.22,-103.5,43.43165,-103.47436,Hot Springs,South Dakota,Fall River County,US,South Dakota
26.95,-95.25,28.44834,-96.40581,Port O'Connor,Texas,Calhoun County,US,Texas
25.7,-92.86,29.30135,-94.7977,Galveston,Texas,Galveston County,US,Texas
41.11,-101.16,41.156940000000006,-101.12626999999999,Sutherland,Nebraska,Lincoln County,US,Nebraska
46.89,-87.43,46.5566,-87.43736,Trowbridge Park,Michigan,Marquette County,US,Michigan
28.53,-98.55,28.461940000000002,-98.54918,Tilden,Texas,McMullen County,US,Texas
45.26,-121.79,45.3554,-121.98064,Mount Hood Village,Oregon,Clackamas County,US,Oregon
26.58,-118.62,27.14231,-114.29581999999999,Bahia Asuncion,Baja California Sur,Mulege,MX,None
29.69,-111.95,29.91313,-112.69179,La Libertad,Sonora,,MX,None
50.35,-72.89,48.88324,-72.44866999999999,Albanel,Quebec,Saguenay/Lac-Saint-Jean,CA,None
48.31,-105.39,48.09057,-105.64056000000001,Wolf Point,Montana,Roosevelt County,US,Montana
40.96,-80.61,40.96117,-80.55757,New Middletown,Ohio,Mahoning County,US,Ohio
41.41,-80.42,41.4045,-80.39118,Greenville,Pennsylvania,Mercer County,US,Pennsylvania
48.71,-113.99,48.37246,-114.18151999999999,Columbia Falls,Montana,Flathead County,US,Montana
47.77,-109.07,48.4825,-108.76543999999998,Fort Belknap Agency,Montana,Blaine County,US,Montana
47.62,-76.84,48.39302,-77.23951,Senneterre,Quebec,Abitibi-Temiscamingue,CA,None
40.73,-108.66,40.08748,-108.80483000000001,Rangely,Colorado,Rio Blanco County,US,Colorado
45.45,-81.14,45.25007,-81.66646999999999,Tobermory,Ontario,,CA,None
37.94,-108.81,37.7661,-108.90593999999999,Dove Creek,Colorado,Dolores County,US,Colorado
25.2,-94.27,26.10369,-97.16469000000001,South Padre Island,Texas,Cameron County,US,Texas
44.4,-91.03,44.29468,-90.85153000000001,Black River Falls,Wisconsin,Jackson County,US,Wisconsin
36.72,-116.99,36.908559999999994,-116.75923,Beatty,Nevada,Nye County,US,Nevada
39.54,-84.72,39.507,-84.74523,Oxford,Ohio,Butler County,US,Ohio
49.31,-90.01,48.382020000000004,-89.25018,Thunder Bay,Ontario,Thunder Bay District,CA,None
37.92,-88.18,37.981159999999996,-88.32921,Norris City,Illinois,White County,US,Illinois
33.55,-90.0,33.508179999999996,-89.92036,Carrollton,Mississippi,Carroll County,US,Mississippi
50.76,-79.51,48.80019,-79.19964,La Sarre,Quebec,Abitibi-Temiscamingue,CA,None
40.35,-82.74,40.30451,-82.69628,Centerburg,Ohio,Knox County,US,Ohio
49.45,-73.64,49.91684,-74.36586,Chibougamau,Quebec,Nord-du-Quebec,CA,None
36.68,-76.6,36.71709,-76.59023,South Suffolk,Virginia,City of Suffolk,US,Virginia
30.45,-117.81,30.960559999999997,-116.16443999999998,Las Brisas,Baja California,Ensenada,MX,None
48.96,-110.54,48.51054,-110.96746999999999,Chester,Montana,Liberty County,US,Montana
39.77,-113.08,39.35218,-112.57717,Delta,Utah,Millard County,US,Utah
37.39,-84.79,37.31841,-84.9394,Liberty,Kentucky,Casey County,US,Kentucky
26.59,-111.52,26.891409999999997,-111.9826,Mulege,Baja California Sur,,MX,None
48.78,-71.8,48.550090000000004,-71.6491,Alma,Quebec,Saguenay/Lac-Saint-Jean,CA,None
26.88,-101.75,27.04944,-101.79389,Lamadrid,Coahuila,Lamadrid,MX,None
44.89,-103.83,44.67137,-103.85215,Belle Fourche,South Dakota,Butte County,US,South Dakota
40.97,-74.97,41.05454,-74.93212,Hardwick,New Jersey,Warren County,US,New Jersey
38.38,-78.25,38.38041,-78.2575,Madison,Virginia,Madison County,US,Virginia
42.97,-97.13,42.77944,-96.92921,Vermillion,South Dakota,Clay County,US,South Dakota
46.93,-117.68,46.88017,-117.36435,Colfax,Washington,Whitman County,US,Washington
50.85,-117.42,51.29995,-116.9689,Golden,British Columbia,,CA,None
26.68,-106.99,26.09117,-106.9626,Guadalupe y Calvo,Chihuahua,,MX,None
45.03,-101.77,45.04748,-101.60099,Dupree,South Dakota,Ziebach County,US,South Dakota
27.0,-97.91,27.221709999999998,-97.78916,Sarita,Texas,Kenedy County,US,Texas
38.31,-110.92,38.40276,-111.64296000000002,Loa,Utah,Wayne County,US,Utah
36.59,-78.52,36.62403,-78.55694,Clarksville,Virginia,Mecklenburg County,US,Virginia
26.81,-120.68,30.407220000000002,-115.88722,Luis Rodriguez (El Vergel),Baja California,Ensenada,MX,None
41.42,-74.34,41.40204,-74.32432,Goshen,New York,Orange County,US,New York
32.51,-103.84,32.286229999999996,-104.09577,Loving,New Mexico,Eddy County,US,New Mexico
45.25,-112.12,45.29381,-111.94608999999998,Virginia City,Montana,Madison County,US,Montana
27.16,-109.0,27.023259999999997,-108.9344,Alamos,Sonora,,MX,None
37.58,-103.99,38.05251,-103.72023,Rocky Ford,Colorado,Otero County,US,Colorado
50.68,-83.91,49.68351,-83.66654,Hearst,Ontario,,CA,None
24.94,-76.65,25.16667,-76.23333000000001,Governor's Harbour,Central Eleuthera,,BS,None
32.49,-94.81,32.52792,-94.86133000000001,White Oak,Texas,Gregg County,US,Texas
38.08,-77.18,38.04958,-77.34665,Bowling Green,Virginia,Caroline County,US,Virginia
33.3,-93.62,33.35846,-93.57768,Lewisville,Arkansas,Lafayette County,US,Arkansas
39.71,-112.89,39.35218,-112.57717,Delta,Utah,Millard County,US,Utah
35.8,-97.6,35.95254,-97.59477,Crescent,Oklahoma,Logan County,US,Oklahoma
30.92,-110.1,30.986990000000002,-110.29061999999999,Cananea,Sonora,,MX,None
39.85,-112.1,39.81607,-111.85548999999999,Mona,Utah,Juab County,US,Utah
26.6,-74.41,25.16667,-76.23333000000001,Governor's Harbour,Central Eleuthera,,BS,None
28.2,-113.46,28.433329999999998,-113.75,San Luis,Baja California,,MX,None
41.88,-117.18,40.97296,-117.73568,Winnemucca,Nevada,Humboldt County,US,Nevada
28.16,-119.44,30.407220000000002,-115.88722,Luis Rodriguez (El Vergel),Baja California,Ensenada,MX,None
26.75,-95.09,28.44834,-96.40581,Port O'Connor,Texas,Calhoun County,US,Texas
31.36,-91.04,31.47239,-90.89676999999999,Meadville,Mississippi,Franklin County,US,Mississippi
39.3,-114.52,39.40494,-114.77863,McGill,Nevada,White Pine County,US,Nevada
27.19,-95.47,28.44834,-96.40581,Port O'Connor,Texas,Calhoun County,US,Texas
37.99,-118.21,37.386390000000006,-118.41526999999999,Dixon Lane-Meadow Creek,California,Inyo County,US,California
28.09,-92.0,29.69326,-91.30205,Patterson,Louisiana,Saint Mary Parish,US,Louisiana
29.84,-72.71,26.541240000000002,-77.0636,Marsh Harbour,Central Abaco,,BS,None
39.79,-79.11,39.81369,-79.02475,Meyersdale,Pennsylvania,Somerset County,US,Pennsylvania
37.33,-104.27,37.16946,-104.50054,Trinidad,Colorado,Las Animas County,US,Colorado
47.27,-70.41,47.44109,-70.49858,Baie-Saint-Paul,Quebec,Capitale-Nationale,CA,None
35.13,-79.82,35.071259999999995,-79.76144000000001,Ellerbe,North Carolina,Richmond County,US,North Carolina
49.94,-82.43,49.416940000000004,-82.43308,Kapuskasing,Ontario,,CA,None
37.81,-69.89,41.28346,-70.09946,Nantucket,Massachusetts,Nantucket County,US,Massachusetts
46.83,-82.36,46.383359999999996,-82.63315,Elliot Lake,Ontario,,CA,None
32.04,-78.33,33.03767,-79.61313,Awendaw,South Carolina,Charleston County,US,South Carolina
24.54,-107.67,24.57556,-107.80056,Las Aguamitas,Sinaloa,Navolato,MX,None
28.26,-116.75,30.407220000000002,-115.88722,Luis Rodriguez (El Vergel),Baja California,Ensenada,MX,None
36.22,-84.0,36.19563,-84.06796999999999,Norris,Tennessee,Anderson County,US,Tennessee
27.15,-93.5,29.30135,-94.7977,Galveston,Texas,Galveston County,US,Texas
36.89,-88.53,37.017559999999996,-88.53143,Reidland,Kentucky,McCracken County,US,Kentucky
41.5,-75.14,41.47592,-75.18212,Hawley,Pennsylvania,Wayne County,US,Pennsylvania
40.91,-98.3,40.92501,-98.34201,Grand Island,Nebraska,Hall County,US,Nebraska
27.1,-112.81,27.34045,-112.26761,Santa Rosalia,Baja California Sur,,MX,None
34.39,-112.83,34.16253,-112.85073999999999,Congress,Arizona,Yavapai County,US,Arizona
45.44,-77.31,45.81681,-77.11616,Pembroke,Ontario,,CA,None
25.99,-101.87,25.44156,-102.1792,Parras de la Fuente,Coahuila,,MX,None
49.46,-79.2,48.80019,-79.19964,La Sarre,Quebec,Abitibi-Temiscamingue,CA,None
35.43,-96.59,35.486740000000005,-96.68502,Prague,Oklahoma,Lincoln County,US,Oklahoma
25.05,-82.65,24.5557,-81.78259,Key West,Florida,Monroe County,US,Florida
34.21,-77.97,34.23073,-77.96582,Belville,North Carolina,Brunswick County,US,North Carolina
44.07,-117.43,43.98211,-117.23823,Vale,Oregon,Malheur County,US,Oregon
34.87,-112.06,34.77113,-112.05793999999999,Clarkdale,Arizona,Yavapai County,US,Arizona
43.12,-111.69,43.469640000000005,-111.96663999999998,Ammon,Idaho,Bonneville County,US,Idaho
32.98,-88.83,33.123740000000005,-89.05506,Louisville,Mississippi,Winston County,US,Mississippi
37.62,-121.39,37.73987,-121.42618,Tracy,California,San Joaquin County,US,California
37.56,-86.19,37.48005,-86.29386,Leitchfield,Kentucky,Grayson County,US,Kentucky
50.0,-96.46,50.0622,-96.51669,Beausejour,Manitoba,,CA,None
31.42,-106.25,31.502340000000004,-106.15858999999999,Fabens,Texas,El Paso County,US,Texas
30.85,-115.01,31.02468,-114.83918999999999,San Felipe,Baja California,,MX,None
30.62,-72.25,35.26768,-75.54236999999999,Buxton,North Carolina,Dare County,US,North Carolina
50.48,-85.73,49.21451,-84.77617,Hornepayne,Ontario,Algoma,CA,None
27.26,-111.45,26.891409999999997,-111.9826,Mulege,Baja California Sur,,MX,None
26.73,-69.98,24.05179,-74.53138,Cockburn Town,San Salvador,,BS,None
48.75,-74.79,49.78344,-74.84919000000001,Chapais,Quebec,Nord-du-Quebec,CA,None
29.61,-101.02,29.36745,-100.94371,Cienegas Terrace,Texas,Val Verde County,US,Texas
36.56,-77.97,36.59959,-78.14305,Bracey,Virginia,Mecklenburg County,US,Virginia
47.11,-77.73,48.10018,-77.7828,Val-d'Or,Quebec,Abitibi-Temiscamingue,CA,None
27.9,-97.25,27.8778,-97.21166,Ingleside,Texas,San Patricio County,US,Texas
35.31,-100.93,35.536159999999995,-100.95987,Pampa,Texas,Gray County,US,Texas
32.97,-115.81,33.03727,-115.62138,Westmorland,California,Imperial County,US,California
42.04,-109.04,41.64358,-109.26568,North Rock Springs,Wyoming,Sweetwater County,US,Wyoming
44.21,-104.54,44.0997,-104.62801999999999,Upton,Wyoming,Weston County,US,Wyoming
36.03,-87.93,36.06006,-87.95281,Johnsonville,Tennessee,Humphreys County,US,Tennessee
33.83,-72.18,35.26768,-75.54236999999999,Buxton,North Carolina,Dare County,US,North Carolina
37.55,-92.66,37.6806,-92.66379,Lebanon,Missouri,Laclede County,US,Missouri
46.86,-76.72,46.38341,-75.96605,Maniwaki,Quebec,Outaouais,CA,None
29.39,-98.27,29.4144,-98.20000999999999,Saint Hedwig,Texas,Bexar County,US,Texas
34.86,-77.99,34.82822,-78.02304000000001,Rose Hill,North Carolina,Duplin County,US,North Carolina
46.64,-82.62,46.383359999999996,-82.63315,Elliot Lake,Ontario,,CA,None
40.89,-88.74,40.88087,-88.62978000000001,Pontiac,Illinois,Livingston County,US,Illinois
37.94,-122.21,37.87715,-122.17969,Orinda,California,Contra Costa County,US,California
33.55,-85.93,33.52983,-85.9508,Munford,Alabama,Talladega County,US,Alabama
46.57,-109.62,46.43551,-109.83435,Harlowton,Montana,Wheatland County,US,Montana
26.08,-120.95,30.407220000000002,-115.88722,Luis Rodriguez (El Vergel),Baja California,Ensenada,MX,None
30.23,-97.47,30.187440000000002,-97.55778000000001,Garfield,Texas,Travis County,US,Texas
42.0,-106.32,41.45496,-106.80643,Saratoga,Wyoming,Carbon County,US,Wyoming
32.86,-106.35,32.84827,-106.09976999999999,Holloman Air Force Base,New Mexico,Otero County,US,New Mexico
43.1,-89.32,43.06222,-89.33400999999999,Monona,Wisconsin,Dane County,US,Wisconsin
46.37,-78.26,46.31681,-78.69957,Mattawa,Ontario,,CA,None
44.87,-79.8,44.7501,-79.88296,Midland,Ontario,,CA,None
25.73,-69.08,21.46122,-71.14188,Cockburn Town,,,TC,None
36.12,-122.62,36.58635,-121.94746,Del Monte Forest,California,Monterey County,US,California
47.65,-86.7,48.7501,-86.43321999999999,Marathon,Ontario,,CA,None
25.32,-83.21,25.9726,-81.72898,Marco,Florida,Collier County,US,Florida
49.13,-112.75,49.41668,-112.86856,Magrath,Alberta,,CA,None
29.0,-123.64,34.63915,-120.45794,Lompoc,California,Santa Barbara County,US,California
40.94,-76.71,40.95536,-76.62885,Riverside,Pennsylvania,Northumberland County,US,Pennsylvania
43.76,-100.81,43.88832,-100.71291,Murdo,South Dakota,Jones County,US,South Dakota
25.69,-80.24,25.7126,-80.25699,Coconut Grove,Florida,Miami-Dade County,US,Florida
37.64,-122.09,37.668820000000004,-122.0808,Hayward,California,Alameda County,US,California
41.39,-108.94,41.58746,-109.2029,Rock Springs,Wyoming,Sweetwater County,US,Wyoming
30.29,-88.52,30.365759999999998,-88.55613000000001,Pascagoula,Mississippi,Jackson County,US,Mississippi
35.22,-73.44,35.26768,-75.54236999999999,Buxton,North Carolina,Dare County,US,North Carolina
49.43,-111.62,49.86676,-111.36843,Bow Island,Alberta,,CA,None
42.46,-112.0,42.191590000000005,-112.2508,Malad City,Idaho,Oneida County,US,Idaho
43.24,-76.81,43.220620000000004,-76.81496,Wolcott,New York,Wayne County,US,New York
36.06,-121.21,36.212740000000004,-121.12603,King City,California,Monterey County,US,California
45.88,-99.68,46.03414,-99.3715,Ashley,North Dakota,McIntosh County,US,North Dakota
26.07,-85.48,27.46698,-82.70399,Bradenton Beach,Florida,Manatee County,US,Florida
37.32,-113.0,37.25332,-113.28466999999999,Toquerville,Utah,Washington County,US,Utah
47.02,-94.6,47.10135,-94.58722,Walker,Minnesota,Cass County,US,Minnesota
31.99,-91.41,32.07265,-91.24095,Newellton,Louisiana,Tensas Parish,US,Louisiana
41.02,-113.02,40.599940000000004,-112.4644,Grantsville,Utah,Tooele County,US,Utah
40.98,-93.0,41.02667,-92.80575,Albia,Iowa,Monroe County,US,Iowa
43.4,-95.98,43.34386,-96.00224,George,Iowa,Lyon County,US,Iowa
40.73,-104.17,41.18193,-104.06912,Pine Bluffs,Wyoming,Laramie County,US,Wyoming
25.81,-74.07,24.05179,-74.53138,Cockburn Town,San Salvador,,BS,None
50.05,-104.2,50.43338,-104.36778000000001,White City,Saskatchewan,,CA,None
40.91,-87.96,40.93531,-87.93449,Clifton,Illinois,Iroquois County,US,Illinois
41.29,-81.13,41.31256,-81.14371,Hiram,Ohio,Portage County,US,Ohio
39.62,-112.62,39.35218,-112.57717,Delta,Utah,Millard County,US,Utah
50.77,-114.49,50.700109999999995,-114.2353,Black Diamond,Alberta,,CA,None
28.78,-117.73,30.407220000000002,-115.88722,Luis Rodriguez (El Vergel),Baja California,Ensenada,MX,None
42.66,-111.93,42.65437,-111.60467,Soda Springs,Idaho,Caribou County,US,Idaho
30.17,-119.74,32.10083,-116.86917,Santa Anita,Baja California,Playas de Rosarito,MX,None
44.7,-119.01,44.41599,-118.95301,John Day,Oregon,Grant County,US,Oregon
41.09,-70.51,41.38901,-70.51335999999999,Edgartown,Massachusetts,Dukes County,US,Massachusetts
26.87,-68.43,21.46122,-71.14188,Cockburn Town,,,TC,None
45.36,-114.94,45.17575,-113.8959,Salmon,Idaho,Lemhi County,US,Idaho
48.25,-82.46,48.46686,-81.33312,Timmins,Ontario,,CA,None
30.35,-69.34,32.2949,-64.78303000000001,Hamilton,Hamilton city,,BM,None
42.22,-112.03,42.096309999999995,-111.87661999999999,Preston,Idaho,Franklin County,US,Idaho
33.69,-93.52,33.66706,-93.59156999999999,Hope,Arkansas,Hempstead County,US,Arkansas
47.69,-91.9,47.708529999999996,-91.9446,Babbitt,Minnesota,Saint Louis County,US,Minnesota
41.01,-117.26,40.97296,-117.73568,Winnemucca,Nevada,Humboldt County,US,Nevada
29.24,-75.72,26.866670000000003,-77.51666999999999,Cooper's Town,North Abaco,,BS,None
42.05,-80.19,42.03145,-80.25534,Fairview,Pennsylvania,Erie County,US,Pennsylvania
33.31,-86.01,33.43594,-86.1058,Talladega,Alabama,Talladega County,US,Alabama
26.24,-69.3,21.46122,-71.14188,Cockburn Town,,,TC,None
27.4,-121.58,30.407220000000002,-115.88722,Luis Rodriguez (El Vergel),Baja California,Ensenada,MX,None
33.22,-99.94,33.1576,-99.7337,Haskell,Texas,Haskell County,US,Texas
49.0,-86.97,48.7501,-86.43321999999999,Marathon,Ontario,,CA,None
45.0,-87.67,45.054429999999996,-87.74927,Peshtigo,Wisconsin,Marinette County,US,Wisconsin
25.96,-86.88,29.81188,-85.30297,Port Saint Joe,Florida,Gulf County,US,Florida
37.25,-108.38,37.345,-108.28925,Mancos,Colorado,Montezuma County,US,Colorado
41.01,-113.83,40.73715,-114.03751000000001,Wendover,Utah,Tooele County,US,Utah
29.1,-71.23,24.05179,-74.53138,Cockburn Town,San Salvador,,BS,None
40.61,-85.66,40.558370000000004,-85.65914000000001,Marion,Indiana,Grant County,US,Indiana
28.3,-114.8,28.433329999999998,-113.75,San Luis,Baja California,,MX,None
38.72,-67.81,41.28346,-70.09946,Nantucket,Massachusetts,Nantucket County,US,Massachusetts
40.24,-96.28,40.36667,-96.19612,Tecumseh,Nebraska,Johnson County,US,Nebraska
45.67,-103.62,45.58416,-103.54603,Buffalo,South Dakota,Harding County,US,South Dakota
31.54,-69.07,32.2949,-64.78303000000001,Hamilton,Hamilton city,,BM,None
47.09,-74.54,46.68338,-73.91589,Saint-Michel-des-Saints,Quebec,Lanaudiere,CA,None
46.79,-86.88,46.4112,-86.64926,Munising,Michigan,Alger County,US,Michigan
49.68,-82.44,49.416940000000004,-82.43308,Kapuskasing,Ontario,,CA,None
25.46,-71.25,22.366670000000003,-72.96667,Abraham's Bay,Mayaguana,,BS,None
42.11,-77.0,42.12174,-77.03719,South Corning,New York,Steuben County,US,New York
37.87,-72.6,39.41012,-74.36459,Brigantine,New Jersey,Atlantic County,US,New Jersey
36.7,-66.52,32.38167,-64.67806,Saint George,Saint George,,BM,None
44.13,-73.53,44.09283,-73.51818,Mineville,New York,Essex County,US,New York
34.28,-120.49,34.63915,-120.45794,Lompoc,California,Santa Barbara County,US,California
26.81,-85.99,29.81188,-85.30297,Port Saint Joe,Florida,Gulf County,US,Florida
30.36,-111.0,30.54265,-111.12086000000001,Santa Ana,Sonora,,MX,None
33.68,-69.29,32.2949,-64.78303000000001,Hamilton,Hamilton city,,BM,None
25.1,-105.9,25.33961,-105.72445,Santa Catarina de Tepehuanes,Durango,,MX,None
35.16,-113.5,35.52916,-113.42549,Peach Springs,Arizona,Mohave County,US,Arizona
29.52,-115.39,30.407220000000002,-115.88722,Luis Rodriguez (El Vergel),Baja California,Ensenada,MX,None
28.45,-96.59,28.41528,-96.71359,Seadrift,Texas,Calhoun County,US,Texas
48.29,-91.76,47.903240000000004,-91.86709,Ely,Minnesota,Saint Louis County,US,Minnesota
36.75,-114.27,36.77303,-114.12801999999999,Bunkerville,Nevada,Clark County,US,Nevada
30.08,-80.11,29.85053,-81.26535,Saint Augustine Beach,Florida,Saint Johns County,US,Florida
49.27,-74.77,49.78344,-74.84919000000001,Chapais,Quebec,Nord-du-Quebec,CA,None
39.14,-67.37,41.28346,-70.09946,Nantucket,Massachusetts,Nantucket County,US,Massachusetts
44.03,-79.79,44.11681,-79.61633,Bradford West Gwillimbury,Ontario,,CA,None
37.7,-82.5,37.866479999999996,-82.53876,Inez,Kentucky,Martin County,US,Kentucky
39.44,-94.97,39.41111,-94.90163000000001,Weston,Missouri,Platte County,US,Missouri
32.72,-101.06,32.717890000000004,-100.91762,Snyder,Texas,Scurry County,US,Texas
26.5,-90.32,29.236620000000002,-89.98729,Grand Isle,Louisiana,Jefferson Parish,US,Louisiana
42.24,-112.84,42.78602,-112.85444,American Falls,Idaho,Power County,US,Idaho
33.33,-122.04,34.63915,-120.45794,Lompoc,California,Santa Barbara County,US,California
31.32,-100.15,31.508490000000002,-99.92008,Paint Rock,Texas,Concho County,US,Texas
24.13,-105.27,23.92596,-105.3395,Banderas del Aguila,Durango,Durango,MX,None
47.12,-72.14,46.68335,-72.0491,Saint-Marc-des-Carrieres,Quebec,Capitale-Nationale,CA,None
48.75,-118.07,48.61074,-118.05582,Kettle Falls,Washington,Stevens County,US,Washington
47.38,-75.08,46.700109999999995,-75.44929,Ferme-Neuve,Quebec,Laurentides,CA,None
26.85,-94.29,28.954140000000002,-95.35965999999999,Freeport,Texas,Brazoria County,US,Texas
39.32,-110.47,39.547740000000005,-110.41488000000001,East Carbon City,Utah,Carbon County,US,Utah
50.86,-81.91,49.416940000000004,-82.43308,Kapuskasing,Ontario,,CA,None
28.81,-88.58,29.480490000000003,-89.69395,Port Sulphur,Louisiana,Plaquemines Parish,US,Louisiana
37.41,-75.15,37.93318,-75.37881,Chincoteague,Virginia,Accomack County,US,Virginia
46.52,-86.12,46.4112,-86.64926,Munising,Michigan,Alger County,US,Michigan
43.51,-109.13,43.00635,-108.88235,Fort Washakie,Wyoming,Fremont County,US,Wyoming
47.33,-66.58,48.007509999999996,-66.67272,Campbellton,New Brunswick,,CA,None
26.16,-107.95,25.80944,-107.915,Bacubirito,Sinaloa,Sinaloa,MX,None
49.06,-113.31,49.19998,-113.3019,Cardston,Alberta,,CA,None
49.81,-106.65,49.883359999999996,-106.55122,Gravelbourg,Saskatchewan,,CA,None
28.59,-76.17,26.866670000000003,-77.51666999999999,Cooper's Town,North Abaco,,BS,None
37.74,-93.6,37.79448,-93.57798000000001,Humansville,Missouri,Polk County,US,Missouri
28.9,-114.48,28.433329999999998,-113.75,San Luis,Baja California,,MX,None
49.5,-93.91,48.60105,-93.41098000000001,International Falls,Minnesota,Koochiching County,US,Minnesota
24.52,-123.39,27.14231,-114.29581999999999,Bahia Asuncion,Baja California Sur,Mulege,MX,None
31.57,-110.15,31.45385,-110.21637,Sierra Vista Southeast,Arizona,Cochise County,US,Arizona
35.78,-118.0,35.6469,-117.81257,Inyokern,California,Kern County,US,California
50.64,-68.49,49.21679,-68.14894,Baie-Comeau,Quebec,Cote-Nord,CA,None
38.68,-108.91,39.07887,-108.63565,Redlands,Colorado,Mesa County,US,Colorado
36.86,-115.79,36.208290000000005,-115.98391000000001,Pahrump,Nevada,Nye County,US,Nevada
35.91,-99.09,36.03865,-98.96370999999999,Taloga,Oklahoma,Dewey County,US,Oklahoma
44.29,-91.49,44.25274,-91.50154,Arcadia,Wisconsin,Trempealeau County,US,Wisconsin
50.98,-82.28,49.416940000000004,-82.43308,Kapuskasing,Ontario,,CA,None
45.86,-71.8,45.76678,-71.9324,Asbestos,Quebec,Estrie,CA,None
42.51,-67.1,43.83345,-66.11556999999999,Yarmouth,Nova Scotia,,CA,None
27.24,-113.08,27.468009999999996,-113.29987,El Silencio,Baja California Sur,Mulege,MX,None
30.82,-117.86,31.720990000000004,-116.57184,Rodolfo Sanchez Taboada,Baja California,,MX,None
38.83,-92.84,38.97364,-92.74324,Boonville,Missouri,Cooper County,US,Missouri
47.14,-110.12,47.15358,-110.21826000000001,Stanford,Montana,Judith Basin County,US,Montana
36.63,-106.61,36.70029,-106.54976,Tierra Amarilla,New Mexico,Rio Arriba County,US,New Mexico
45.85,-95.42,45.88524,-95.37754,Alexandria,Minnesota,Douglas County,US,Minnesota
36.37,-88.89,36.3434,-88.85034,Martin,Tennessee,Weakley County,US,Tennessee
34.27,-85.24,34.25704,-85.16467,Rome,Georgia,Floyd County,US,Georgia
46.23,-114.97,46.24687,-114.16037,Hamilton,Montana,Ravalli County,US,Montana
39.95,-70.35,41.28346,-70.09946,Nantucket,Massachusetts,Nantucket County,US,Massachusetts
33.0,-99.08,33.17872,-99.17758,Throckmorton,Texas,Throckmorton County,US,Texas
34.56,-107.61,34.42089,-107.51088,Alamo,New Mexico,Socorro County,US,New Mexico
26.66,-102.41,27.314770000000003,-102.3966,Ocampo,Coahuila,,MX,None
35.92,-106.71,36.15335,-106.67948,Santa Teresa,New Mexico,Rio Arriba County,US,New Mexico
34.86,-94.93,34.751490000000004,-95.04802,Talihina,Oklahoma,Le Flore County,US,Oklahoma
30.93,-114.58,31.02468,-114.83918999999999,San Felipe,Baja California,,MX,None
36.96,-66.52,32.38167,-64.67806,Saint George,Saint George,,BM,None
47.14,-84.27,46.51677,-84.33325,Sault Ste. Marie,Ontario,Algoma,CA,None
33.52,-78.01,33.92156,-78.02027,Southport,North Carolina,Brunswick County,US,North Carolina
50.77,-92.39,50.63955,-93.23526,Ear Falls,Ontario,,CA,None
28.42,-93.89,29.47829,-94.57991,Bolivar Peninsula,Texas,Galveston County,US,Texas
33.97,-115.85,34.13556,-116.05417,Twentynine Palms,California,San Bernardino County,US,California
50.63,-75.23,49.78344,-74.84919000000001,Chapais,Quebec,Nord-du-Quebec,CA,None
42.76,-81.26,42.77361,-81.18038,St. Thomas,Ontario,,CA,None
36.0,-82.08,36.01567,-82.15874000000001,Bakersville,North Carolina,Mitchell County,US,North Carolina
34.36,-107.11,34.0584,-106.89142,Socorro,New Mexico,Socorro County,US,New Mexico
47.36,-97.73,47.51416,-97.83593,Finley,North Dakota,Steele County,US,North Dakota
40.98,-120.46,41.48711,-120.54246,Alturas,California,Modoc County,US,California
25.64,-104.32,25.2275,-104.11389,Nazas,Durango,Nazas,MX,None
25.39,-100.59,25.44528,-100.84667,Arteaga,Coahuila,Arteaga,MX,None
36.98,-87.29,36.81004,-87.15417,Elkton,Kentucky,Todd County,US,Kentucky
27.89,-93.32,29.79772,-93.32515,Cameron,Louisiana,Cameron Parish,US,Louisiana
43.14,-122.25,43.74651,-122.46172,Oakridge,Oregon,Lane County,US,Oregon
49.97,-97.08,49.8844,-97.14704,Winnipeg,Manitoba,,CA,None
44.59,-82.97,44.6564,-83.29469,Harrisville,Michigan,Alcona County,US,Michigan
25.35,-87.61,21.5967,-88.15773,Rio Lagartos,Yucatan,,MX,None
28.39,-118.87,30.40722,-115.88722,Luis Rodriguez (El Vergel),Baja California,Ensenada,MX,None
27.4,-70.58,24.05179,-74.53138,Cockburn Town,San Salvador,,BS,None
29.85,-95.25,29.76745,-95.23382,Jacinto City,Texas,Harris County,US,Texas
38.63,-113.78,38.39691,-113.01079,Milford,Utah,Beaver County,US,Utah
40.58,-112.44,40.59994,-112.4644,Grantsville,Utah,Tooele County,US,Utah
25.28,-81.51,24.67153,-81.49842,Cudjoe Key,Florida,Monroe County,US,Florida
24.82,-103.93,24.79289,-104.02659,Penon Blanco,Durango,,MX,None
34.03,-70.02,32.2949,-64.78303,Hamilton,Hamilton city,,BM,None
37.74,-74.1,38.3365,-75.08491,Ocean City,Maryland,Worcester County,US,Maryland
29.98,-88.36,30.25548,-88.10972,Dauphin Island,Alabama,Mobile County,US,Alabama
42.32,-113.02,42.78602,-112.85444,American Falls,Idaho,Power County,US,Idaho
33.19,-81.82,33.32542,-81.78789,Jackson,South Carolina,Aiken County,US,South Carolina
29.17,-67.62,32.2949,-64.78303,Hamilton,Hamilton city,,BM,None
45.02,-110.09,45.66244,-110.56104,Livingston,Montana,Park County,US,Montana
30.7,-116.21,30.84222,-116.06328,Camalu,Baja California,,MX,None
39.71,-82.09,39.76896,-82.09209,Crooksville,Ohio,Perry County,US,Ohio
26.39,-100.53,26.53333,-100.5,Bustamante,Nuevo Leon,,MX,None
37.49,-108.91,37.7661,-108.90594,Dove Creek,Colorado,Dolores County,US,Colorado
42.02,-103.74,41.94024,-103.80856,Mitchell,Nebraska,Scotts Bluff County,US,Nebraska
24.12,-86.57,21.23114,-86.73105,Isla Mujeres,Quintana Roo,,MX,None
32.58,-104.91,32.76956,-104.38885,Atoka,New Mexico,Eddy County,US,New Mexico
46.2,-87.87,46.48355,-87.70097,West Ishpeming,Michigan,Marquette County,US,Michigan
38.74,-119.01,38.98575,-119.16293,Yerington,Nevada,Lyon County,US,Nevada
50.01,-82.2,49.41694,-82.43308,Kapuskasing,Ontario,,CA,None
26.81,-97.05,26.10369,-97.16469,South Padre Island,Texas,Cameron County,US,Texas
43.89,-91.48,44.00552,-91.44209,Trempealeau,Wisconsin,Trempealeau County,US,Wisconsin
34.79,-116.24,35.26275,-116.68475,Fort Irwin,California,San Bernardino County,US,California
32.3,-66.84,32.2949,-64.78303,Hamilton,Hamilton city,,BM,None
41.23,-93.17,41.225,-93.24132,Melcher-Dallas,Iowa,Marion County,US,Iowa
27.35,-81.49,27.24144,-81.40702,Placid Lakes,Florida,Highlands County,US,Florida
38.52,-82.9,38.57313,-82.83017,Greenup,Kentucky,Greenup County,US,Kentucky
44.64,-71.2,44.57339,-71.18508,Milan,New Hampshire,Coos County,US,New Hampshire
32.19,-107.01,32.27009,-106.80084,Mesilla,New Mexico,Dona Ana County,US,New Mexico
